[{
	'name': '440 Gallery',
	'slug': '440-Gallery',
	'website': 'http://www.440gallery.com',
	'phone': '718 499 3844',
	'address1': '440 Sixth Avenue',
	'address2': '',
	'city': 'Brooklyn',
	'neighborhood': 220,
	'coordinates': {
		'lat': '40.66775',
		'long': '-73.98456'
	}
}, {
	'name': '532 Gallery Thomas Jaeckel',
	'slug': '532-Gallery-Thomas-Jaeckel',
	'website': 'http://www.532gallery.com',
	'phone': '(917) 701-3338',
	'address1': '532 West 25th Street',
	'address2': '',
	'city': 'New York',
	'neighborhood': 130,
	'coordinates': {
		'lat': '40.74941',
		'long': '-74.00485'
	}
}, {
	'name': 'A.I.R. Gallery',
	'slug': 'A-I-R-Gallery',
	'website': 'http://www.airgallery.org',
	'phone': '(212) 255-6651',
	'address1': '155 Plymouth Street',
	'address2': '',
	'city': 'Brooklyn',
	'neighborhood': 230,
	'coordinates': {
		'lat': '40.70386',
		'long': '-73.98707'
	}
}, {
	'name': 'ACA Galleries',
	'slug': 'ACA-Galleries',
	'website': 'http://www.acagalleries.com',
	'phone': '212 206 8080',
	'address1': '529 West 20th Street',
	'address2': '5th floor',
	'city': 'New York',
	'neighborhood': 80,
	'coordinates': {
		'lat': '40.74619',
		'long': '-74.0062'
	}
}, {
	'name': 'Acquavella',
	'slug': 'Acquavella',
	'website': 'http://www.acquavellagalleries.com',
	'phone': '(212) 734-6300',
	'address1': '18 East 79th Street',
	'address2': '',
	'city': 'New York',
	'neighborhood': 190,
	'coordinates': {
		'lat': '40.77633',
		'long': '-73.96288'
	}
}, {
	'name': 'Aicon Gallery',
	'slug': 'Aicon-Gallery',
	'website': 'http://www.aicongallery.com',
	'phone': '212 725 6092',
	'address1': '35 Great Jones Street',
	'address2': '',
	'city': 'New York',
	'neighborhood': 50,
	'coordinates': {
		'lat': '40.727',
		'long': '-73.99326'
	}
}, {
	'name': 'Alexander Gray Associates',
	'slug': 'Alexander-Gray-Associates',
	'website': 'http://www.alexandergray.com',
	'phone': '(212) 399-2636',
	'address1': '510 West 26th Street',
	'address2': '',
	'city': 'New York',
	'neighborhood': 140,
	'coordinates': {
		'lat': '40.74999',
		'long': '-74.00398'
	}
}, {
	'name': 'Alexandre Gallery',
	'slug': 'Alexandre-Gallery',
	'website': 'http://www.alexandregallery.com',
	'phone': '212 755 2828',
	'address1': '724 Fifth Avenue',
	'address2': '',
	'city': 'New York',
	'neighborhood': 180,
	'coordinates': {
		'lat': '40.66027',
		'long': '-73.99496'
	}
}, {
	'name': 'Allan Stone Projects',
	'slug': 'Allan-Stone-Projects',
	'website': ' http://www.allanstoneprojects.com/',
	'phone': '(212) 987-4997',
	'address1': '535 West 22nd Street ',
	'address2': '3rd Floor',
	'city': 'New York',
	'neighborhood': 100,
	'coordinates': {
		'lat': '40.74731',
		'long': '-74.0051'
	}
}, {
	'name': 'American Academy of Arts & Letters',
	'slug': 'American-Academy-of-Arts-Letters',
	'website': 'http://www.artsandletters.org',
	'phone': '(212) 368-5900',
	'address1': '633 West 155th Street',
	'address2': '',
	'city': 'New York',
	'neighborhood': 210,
	'coordinates': {
		'lat': '40.83385',
		'long': '-73.94731'
	}
}, {
	'name': 'American Folk Art Museum',
	'slug': 'American-Folk-Art-Museum',
	'website': 'http://www.folkartmuseum.org',
	'phone': '(212) 265-1040',
	'address1': '2 Lincoln Square',
	'address2': '',
	'city': 'New York',
	'neighborhood': 200,
	'coordinates': {
		'lat': '40.77316',
		'long': '-73.98142'
	}
}, {
	'name': 'Americas Society',
	'slug': 'Americas-Society',
	'website': 'http://www.as-coa.org/',
	'phone': '212 628 3200',
	'address1': '680 Park Avenue',
	'address2': '',
	'city': 'New York',
	'neighborhood': 190,
	'coordinates': {
		'lat': '40.76884',
		'long': '-73.96597'
	}
}, {
	'name': 'Ameringer, McEnery, Yohe',
	'slug': 'Ameringer-McEnery-Yohe',
	'website': 'http://www.amy-nyc.com',
	'phone': '(212) 445-0051',
	'address1': '525 West 22nd Street',
	'address2': '',
	'city': 'New York',
	'neighborhood': 100,
	'coordinates': {
		'lat': '40.74722',
		'long': '-74.0049'
	}
}, {
	'name': 'Amos Eno',
	'slug': 'Amos-Eno',
	'website': 'http://www.amoseno.org',
	'phone': '718 237 3001',
	'address1': '56 Bogart Street',
	'address2': '',
	'city': 'Brooklyn',
	'neighborhood': 240,
	'coordinates': {
		'lat': '40.70571',
		'long': '-73.93331'
	}
}, {
	'name': 'Amsterdam Whitney',
	'slug': 'Amsterdam-Whitney',
	'website': 'http://www.amsterdamwhitneygallery.com',
	'phone': '212 255 9050',
	'address1': '511 West 25th Street',
	'address2': '#406',
	'city': 'New York',
	'neighborhood': 130,
	'coordinates': {
		'lat': '40.74952',
		'long': '-74.00391'
	}
}, {
	'name': 'Andre Zarre Gallery',
	'slug': 'Andre-Zarre-Gallery',
	'website': 'http://www.andrezarrefineart.com',
	'phone': '(212) 255-0202',
	'address1': '529 West 20th Street ',
	'address2': '7th Floor',
	'city': 'New York',
	'neighborhood': 80,
	'coordinates': {
		'lat': '40.74619',
		'long': '-74.0062'
	}
}, {
	'name': 'Andrea Meislin',
	'slug': 'Andrea-Meislin',
	'website': 'http://www.andreameislin.com',
	'phone': '(212) 627-2552',
	'address1': '534 West 24th Street',
	'address2': '',
	'city': 'New York',
	'neighborhood': 120,
	'coordinates': {
		'lat': '40.74866',
		'long': '-74.00465'
	}
}, {
	'name': 'Andrea Rosen',
	'slug': 'Andrea-Rosen',
	'website': 'http://www.andrearosengallery.com',
	'phone': '(212) 627-6000',
	'address1': '525 West 24th Street',
	'address2': '',
	'city': 'New York',
	'neighborhood': 120,
	'coordinates': {
		'lat': '40.74866',
		'long': '-74.00418'
	}
}, {
	'name': 'Andrew Edlin Gallery',
	'slug': 'Andrew-Edlin-Gallery',
	'website': 'http://www.edlingallery.com',
	'phone': '(212) 206-9723',
	'address1': '212 Bowery',
	'address2': '',
	'city': 'New York',
	'neighborhood': 20,
	'coordinates': {
		'lat': '40.72121',
		'long': '-73.99407'
	}
}, {
	'name': 'Andrew Kreps (537 W 22)',
	'slug': 'Andrew-Kreps-537-W-22-',
	'website': 'http://www.andrewkreps.com',
	'phone': '(212) 741-8849',
	'address1': '537 West 22nd Street',
	'address2': '',
	'city': 'New York',
	'neighborhood': 100,
	'coordinates': {
		'lat': '40.7477395',
		'long': '-74.0085596'
	}
}, {
	'name': 'Aperture',
	'slug': 'Aperture',
	'website': 'http://www.aperture.org',
	'phone': '212 505 5555',
	'address1': '547 West 27th Street',
	'address2': '4th Floor',
	'city': 'New York',
	'neighborhood': 150,
	'coordinates': {
		'lat': '40.75142',
		'long': '-74.00429'
	}
}, {
	'name': 'Apexart',
	'slug': 'Apexart',
	'website': 'http://www.apexart.org',
	'phone': '(212) 431-5270',
	'address1': '291 Church Street',
	'address2': '',
	'city': 'New York',
	'neighborhood': 10,
	'coordinates': {
		'lat': '40.71902',
		'long': '-74.00441'
	}
}, {
	'name': 'Arsenal Gallery',
	'slug': 'Arsenal-Gallery',
	'website': 'http://www.nycgovparks.org',
	'phone': '212 360 8163',
	'address1': '830 Fifth Avenue ',
	'address2': '(at East 64th Street)',
	'city': 'New York',
	'neighborhood': 190,
	'coordinates': {
		'lat': '40.76707',
		'long': '-73.97095'
	}
}, {
	'name': 'Asia Society Museum',
	'slug': 'Asia-Society-Museum',
	'website': 'http://www.asiasociety.org',
	'phone': '212 794 1332',
	'address1': '725 Park Avenue',
	'address2': '',
	'city': 'New York',
	'neighborhood': 190,
	'coordinates': {
		'lat': '40.76995',
		'long': '-73.96454'
	}
}, {
	'name': 'Driscoll Babcock',
	'slug': 'Driscoll-Babcock',
	'website': 'http://www.driscollbabcock.com',
	'phone': '(212) 767-1852',
	'address1': '525 West 25th Street',
	'address2': '',
	'city': 'New York',
	'neighborhood': 130,
	'coordinates': {
		'lat': '40.74945',
		'long': '-74.00413'
	}
}, {
	'name': 'Barbara Mathes',
	'slug': 'Barbara-Mathes',
	'website': 'http://www.barbaramathesgallery.com/',
	'phone': '212 570 4190',
	'address1': '22 East 80th Street',
	'address2': '',
	'city': 'New York',
	'neighborhood': 190,
	'coordinates': {
		'lat': '40.77697',
		'long': '-73.96219'
	}
}, {
	'name': 'Bernarducci Meisel',
	'slug': 'Bernarducci-Meisel',
	'website': 'http://www.bernarduccimeisel.com',
	'phone': '212 593 3757',
	'address1': '37 West 57th Street',
	'address2': '',
	'city': 'New York',
	'neighborhood': 180,
	'coordinates': {
		'lat': '40.76408',
		'long': '-73.97591'
	}
}, {
	'name': 'Bertha & Karl Leubsdorf Art Gallery at Hunter College',
	'slug': 'Bertha-Karl-Leubsdorf-Art-Gallery-at-Hunter-College',
	'website': 'http://www.hunter.cuny.edu/art/galleries/index.htm',
	'phone': '212 772-4991',
	'address1': '68th Street & Lexington Ave.',
	'address2': '',
	'city': 'New York',
	'neighborhood': 190,
	'coordinates': {
		'lat': '40.69804',
		'long': '-73.9478'
	}
}, {
	'name': 'Bitforms',
	'slug': 'Bitforms',
	'website': 'http://www.bitforms.com',
	'phone': '(212) 366-6939',
	'address1': '131 Allen Street',
	'address2': '',
	'city': 'New York',
	'neighborhood': 20,
	'coordinates': {
		'lat': '40.72022',
		'long': '-73.99028'
	}
}, {
	'name': 'Black & White Gallery',
	'slug': 'Black-White-Gallery',
	'website': 'http://www.blackandwhiteartgallery.com',
	'phone': '(718) 599-8775',
	'address1': '56 Bogart Street',
	'address2': '',
	'city': 'Brooklyn',
	'neighborhood': 240,
	'coordinates': {
		'lat': '40.70571',
		'long': '-73.93331'
	}
}, {
	'name': 'Blank Space Art',
	'slug': 'Blank-Space-Art',
	'website': 'http://www.blankspaceart.com/',
	'phone': '(212) 924-2025',
	'address1': '30 Gansevoort Street',
	'address2': '',
	'city': 'New York',
	'neighborhood': 60,
	'coordinates': {
		'lat': '40.73932',
		'long': '-74.00614'
	}
}, {
	'name': 'Blue Mountain Gallery',
	'slug': 'Blue-Mountain-Gallery',
	'website': 'http://www.bluemountaingallery.org',
	'phone': '(646) 486-4730',
	'address1': '530 West 25th Street ',
	'address2': '4th Floor',
	'city': 'New York',
	'neighborhood': 130,
	'coordinates': {
		'lat': '40.74926',
		'long': '-74.00414'
	}
}, {
	'name': 'Benrubi Gallery',
	'slug': 'Benrubi-Gallery',
	'website': 'http://www.benrubigallery.com/',
	'phone': '(212) 888-6007',
	'address1': '521 West 26th Street ',
	'address2': '2nd Floor',
	'city': 'New York',
	'neighborhood': 140,
	'coordinates': {
		'lat': '40.74992',
		'long': '-74.00333'
	}
}, {
	'name': 'Bortolami (old)',
	'slug': 'Bortolami-old-',
	'website': 'http://www.bortolamigallery.com',
	'phone': '(212) 727-2050',
	'address1': '520 West 20th Street',
	'address2': '',
	'city': 'New York',
	'neighborhood': 80,
	'coordinates': {
		'lat': '40.74626',
		'long': '-74.00682'
	}
}, {
	'name': 'Bowery Gallery',
	'slug': 'Bowery-Gallery',
	'website': 'http://www.bowerygallery.org',
	'phone': '(646) 230-6655',
	'address1': '530 West 25th Street ',
	'address2': '4th Floor',
	'city': 'New York',
	'neighborhood': 130,
	'coordinates': {
		'lat': '40.74926',
		'long': '-74.00414'
	}
}, {
	'name': 'BravinLee Programs',
	'slug': 'BravinLee-Programs',
	'website': 'http://www.bravinlee.com',
	'phone': '(212) 462-4404',
	'address1': '526 West 26th Street ',
	'address2': '#211',
	'city': 'New York',
	'neighborhood': 140,
	'coordinates': {
		'lat': '40.74982',
		'long': '-74.00358'
	}
}, {
	'name': 'BRIC',
	'slug': 'BRIC',
	'website': 'http://www.bricartsmedia.org/contemporary-art',
	'phone': '718 875 4047',
	'address1': '647 Fulton Street',
	'address2': '',
	'city': 'Brooklyn',
	'neighborhood': 235,
	'coordinates': {
		'lat': '40.68832',
		'long': '-73.97923'
	}
}, {
	'name': 'Bronx Museum',
	'slug': 'Bronx-Museum',
	'website': 'http://www.bronxmuseum.org',
	'phone': '(718) 681-6000',
	'address1': '1040 Grand Concourse',
	'address2': '',
	'city': 'Bronx',
	'neighborhood': 280,
	'coordinates': {
		'lat': '40.83101',
		'long': '-73.91976'
	}
}, {
	'name': 'Bronx River Art Center',
	'slug': 'Bronx-River-Art-Center',
	'website': 'http://www.bronxriverart.org',
	'phone': '718 589 8731',
	'address1': '1087 East Tremont Avenue',
	'address2': '',
	'city': 'Bronx',
	'neighborhood': 280,
	'coordinates': {
		'lat': '40.84059',
		'long': '-73.87816'
	}
}, {
	'name': 'Brooklyn Museum',
	'slug': 'Brooklyn-Museum',
	'website': 'http://www.brooklynmuseum.org',
	'phone': '718 638 5000',
	'address1': '200 Eastern Parkway',
	'address2': '',
	'city': 'Brooklyn',
	'neighborhood': 260,
	'coordinates': {
		'lat': '40.67158',
		'long': '-73.96279'
	}
}, {
	'name': 'Bruce Silverstein Gallery (24th Street)',
	'slug': 'Bruce-Silverstein-Gallery-24th-Street-',
	'website': 'http://www.brucesilverstein.com',
	'phone': '(212) 627-3930',
	'address1': '535 West 24th Street',
	'address2': '',
	'city': 'New York',
	'neighborhood': 120,
	'coordinates': {
		'lat': '40.74885',
		'long': '-74.00464'
	}
}, {
	'name': 'Bryce Wolkowitz Gallery',
	'slug': 'Bryce-Wolkowitz-Gallery',
	'website': 'http://www.brycewolkowitz.com',
	'phone': '(212) 243-8830',
	'address1': '505 West 24th Street',
	'address2': '',
	'city': 'New York',
	'neighborhood': 120,
	'coordinates': {
		'lat': '40.74866',
		'long': '-74.00418'
	}
}, {
	'name': 'Caelum Gallery',
	'slug': 'Caelum-Gallery',
	'website': 'http://www.caelumgallery.com',
	'phone': '212 924 4161',
	'address1': '508-526 West 26th Street',
	'address2': '#315',
	'city': 'New York',
	'neighborhood': 140,
	'coordinates': {
		'lat': '40.74999',
		'long': '-74.00398'
	}
}, {
	'name': 'Canada',
	'slug': 'Canada',
	'website': 'http://www.canadanewyork.com',
	'phone': '(212) 925-4631',
	'address1': '333 Broome Street',
	'address2': '',
	'city': 'New York',
	'neighborhood': 20,
	'coordinates': {
		'lat': '40.71903',
		'long': '-73.99406'
	}
}, {
	'name': 'Carolina Nitsch (Project Room)',
	'slug': 'Carolina-Nitsch-Project-Room-',
	'website': 'http://www.carolinanitsch.com',
	'phone': '(212) 645-2030',
	'address1': '534 West 22nd Street',
	'address2': '',
	'city': 'New York',
	'neighborhood': 100,
	'coordinates': {
		'lat': '40.74735',
		'long': '-74.00567'
	}
}, {
	'name': 'Casey Kaplan',
	'slug': 'Casey-Kaplan',
	'website': 'http://www.caseykaplangallery.com',
	'phone': '(212) 645-7335',
	'address1': '121 West 27th Street',
	'address2': '',
	'city': 'New York',
	'neighborhood': 150,
	'coordinates': {
		'lat': '40.74606',
		'long': '-73.99192'
	}
}, {
	'name': 'Cavin-Morris Gallery',
	'slug': 'Cavin-Morris-Gallery',
	'website': 'http://www.cavinmorris.com',
	'phone': '(212) 226-3768',
	'address1': '210 11th Avenue ',
	'address2': 'Suite 201',
	'city': 'New York',
	'neighborhood': 120,
	'coordinates': {
		'lat': '40.74984',
		'long': '-74.00591'
	}
}, {
	'name': 'Central Booking',
	'slug': 'Central-Booking',
	'website': 'http://www.centralbookingnyc.com',
	'phone': '(347) 731-6559',
	'address1': '21 Ludlow Street',
	'address2': '',
	'city': 'New York',
	'neighborhood': 20,
	'coordinates': {
		'lat': '40.71542',
		'long': '-73.991'
	}
}, {
	'name': 'Ceres Gallery',
	'slug': 'Ceres-Gallery',
	'website': 'http://www.ceresgallery.org',
	'phone': '(212) 947-6100',
	'address1': '547 West 27th Street ',
	'address2': '# 201',
	'city': 'New York',
	'neighborhood': 150,
	'coordinates': {
		'lat': '40.75142',
		'long': '-74.00429'
	}
}, {
	'name': 'Chambers Fine Art',
	'slug': 'Chambers-Fine-Art',
	'website': 'http://www.chambersfineart.com',
	'phone': '(212) 414-1169',
	'address1': '522 West 19th Street',
	'address2': '',
	'city': 'New York',
	'neighborhood': 70,
	'coordinates': {
		'lat': '40.74531',
		'long': '-74.00639'
	}
}, {
	'name': 'Chashama 141',
	'slug': 'Chashama-141',
	'website': 'http://www.chashama.org',
	'phone': '212 391 8151',
	'address1': '141 East 33rd Street',
	'address2': '',
	'city': 'New York',
	'neighborhood': 170,
	'coordinates': {
		'lat': '40.74576',
		'long': '-73.97976'
	}
}, {
	'name': 'Chashama Gallery 112-Times Square',
	'slug': 'Chashama-Gallery-112-Times-Square',
	'website': 'http://www.chashama.org',
	'phone': '646 992 9924',
	'address1': '112 West 44th Street',
	'address2': '',
	'city': 'New York',
	'neighborhood': 170,
	'coordinates': {
		'lat': '40.75631',
		'long': '-73.9838'
	}
}, {
	'name': 'Chashama Windows',
	'slug': 'Chashama-Windows',
	'website': 'http://www.chashama.org',
	'phone': 'no phone',
	'address1': '266 West 37th Street',
	'address2': '',
	'city': 'New York',
	'neighborhood': 170,
	'coordinates': {
		'lat': '40.75361',
		'long': '-73.99118'
	}
}, {
	'name': 'Cheim & Read',
	'slug': 'Cheim-Read',
	'website': 'http://www.cheimread.com',
	'phone': '212 242 7727',
	'address1': '547 West 25th Street',
	'address2': '',
	'city': 'New York',
	'neighborhood': 130,
	'coordinates': {
		'lat': '40.74945',
		'long': '-74.00413'
	}
}, {
	'name': 'China Institute Gallery',
	'slug': 'China-Institute-Gallery',
	'website': 'http://www.chinainstitute.org/',
	'phone': '212 744 8181',
	'address1': '125 East 65th Street',
	'address2': '',
	'city': 'New York',
	'neighborhood': 190,
	'coordinates': {
		'lat': '40.76643',
		'long': '-73.96591'
	}
}, {
	'name': 'Claire Oliver Gallery',
	'slug': 'Claire-Oliver-Gallery',
	'website': 'http://www.claireoliver.com',
	'phone': '(212) 92905949',
	'address1': '513 West 26th Street',
	'address2': '',
	'city': 'New York',
	'neighborhood': 140,
	'coordinates': {
		'lat': '40.75041',
		'long': '-74.00408'
	}
}, {
	'name': 'Clampart',
	'slug': 'Clampart',
	'website': 'http://www.clampart.com',
	'phone': '(646) 230-0020',
	'address1': '531 West 25th Street',
	'address2': '',
	'city': 'New York',
	'neighborhood': 130,
	'coordinates': {
		'lat': '40.74942',
		'long': '-74.00407'
	}
}, {
	'name': 'Corridor Gallery',
	'slug': 'Corridor-Gallery',
	'website': 'http://www.corridorgallerybrooklyn.org',
	'phone': '718 230 5002',
	'address1': '334 Grand Avenue',
	'address2': '',
	'city': 'Brooklyn',
	'neighborhood': 235,
	'coordinates': {
		'lat': '40.6858',
		'long': '-73.9626'
	}
}, {
	'name': 'Craig F. Starr Gallery',
	'slug': 'Craig-F-Starr-Gallery',
	'website': 'http://www.starr-art.com',
	'phone': '(212) 570-1739',
	'address1': '5 East 73rd Street',
	'address2': '',
	'city': 'New York',
	'neighborhood': 190,
	'coordinates': {
		'lat': '40.77306',
		'long': '-73.96574'
	}
}, {
	'name': 'Creon Gallery',
	'slug': 'Creon-Gallery',
	'website': 'http://www.creongallery.com',
	'phone': '(646) 265-5508',
	'address1': '238 East 24th Street ',
	'address2': '@ 2nd Ave. #1B',
	'city': 'New York',
	'neighborhood': 160,
	'coordinates': {
		'lat': '40.73856',
		'long': '-73.98105'
	}
}, {
	'name': 'CRG Gallery',
	'slug': 'CRG-Gallery',
	'website': 'http://www.crggallery.com',
	'phone': '(212) 229-2766',
	'address1': '195 Chrystie Street',
	'address2': '',
	'city': 'New York',
	'neighborhood': 20,
	'coordinates': {
		'lat': '40.72217',
		'long': '-73.99235'
	}
}, {
	'name': 'Cuchifritos',
	'slug': 'Cuchifritos',
	'website': 'http://artistsallianceinc.org/cuchifritos-gallery-2',
	'phone': '(212) 420-9202',
	'address1': '120 Essex Street',
	'address2': '',
	'city': 'New York',
	'neighborhood': 20,
	'coordinates': {
		'lat': '40.71935',
		'long': '-73.98768'
	}
}, {
	'name': 'Cue Art Foundation',
	'slug': 'Cue-Art-Foundation',
	'website': 'http://www.cueartfoundation.org',
	'phone': '(212) 206-3583',
	'address1': '137 West 25th Street',
	'address2': '',
	'city': 'New York',
	'neighborhood': 130,
	'coordinates': {
		'lat': '40.74509',
		'long': '-73.9934'
	}
}, {
	'name': 'Danziger Gallery',
	'slug': 'Danziger-Gallery',
	'website': 'http://www.danzigerprojects.com',
	'phone': '(212) 629-6778',
	'address1': '95 Rivington Street',
	'address2': '',
	'city': 'New York',
	'neighborhood': 20,
	'coordinates': {
		'lat': '40.71995',
		'long': '-73.98867'
	}
}, {
	'name': 'David Findlay Jr Fine Art',
	'slug': 'David-Findlay-Jr-Fine-Art',
	'website': 'http://www.davidfindlayjr.com',
	'phone': '(212) 486-7660',
	'address1': '724 Fifth Avenue ',
	'address2': '- 8th Floor',
	'city': 'New York',
	'neighborhood': 180,
	'coordinates': {
		'lat': '40.66027',
		'long': '-73.99496'
	}
}, {
	'name': 'David Krut Projects',
	'slug': 'David-Krut-Projects',
	'website': 'http://www.davidkrut.com',
	'phone': '(212) 255-3094',
	'address1': '526 West 26th Street',
	'address2': '#816',
	'city': 'New York',
	'neighborhood': 140,
	'coordinates': {
		'lat': '40.74982',
		'long': '-74.00358'
	}
}, {
	'name': 'David Nolan Gallery',
	'slug': 'David-Nolan-Gallery',
	'website': 'http://www.davidnolangallery.com',
	'phone': '(212) 925-6190',
	'address1': '527 West 29th Street',
	'address2': '',
	'city': 'New York',
	'neighborhood': 150,
	'coordinates': {
		'lat': '40.75222',
		'long': '-74.00266'
	}
}, {
	'name': 'David Tunick',
	'slug': 'David-Tunick',
	'website': 'http://www.tunickart.com',
	'phone': '212 570 0090',
	'address1': '19 East 66th Street',
	'address2': '',
	'city': 'New York',
	'neighborhood': 190,
	'coordinates': {
		'lat': '40.76833',
		'long': '-73.96848'
	}
}, {
	'name': 'Davis & Langdale',
	'slug': 'Davis-Langdale',
	'website': 'http://www.davisandlangdale.com',
	'phone': '212 838 0333',
	'address1': '231 East 60th Street',
	'address2': '',
	'city': 'New York',
	'neighborhood': 190,
	'coordinates': {
		'lat': '40.76184',
		'long': '-73.96468'
	}
}, {
	'name': 'DC Moore Gallery',
	'slug': 'DC-Moore-Gallery',
	'website': 'http://www.dcmooregallery.com',
	'phone': '(212) 247-2111',
	'address1': '535 West 22nd Street',
	'address2': '2nd Floor',
	'city': 'New York',
	'neighborhood': 100,
	'coordinates': {
		'lat': '40.74731',
		'long': '-74.0051'
	}
}, {
	'name': 'Deborah Bell Photographs',
	'slug': 'Deborah-Bell-Photographs',
	'website': 'http://www.deborahbellphotographs.com',
	'phone': '(212) 249-9400',
	'address1': '16 East 71st Street ',
	'address2': 'Suite 1D 4th Floor',
	'city': 'New York',
	'neighborhood': 190,
	'coordinates': {
		'lat': '40.77112',
		'long': '-73.96655'
	}
}, {
	'name': 'Denise Bibro Fine Art, Inc',
	'slug': 'Denise-Bibro-Fine-Art-Inc',
	'website': 'http://www.denisebibrofineart.com',
	'phone': '(212) 647-7030',
	'address1': '529 West 20th Street ',
	'address2': '4th floor',
	'city': 'New York',
	'neighborhood': 80,
	'coordinates': {
		'lat': '40.74619',
		'long': '-74.0062'
	}
}, {
	'name': 'Dorsky Gallery Curatorial Programs',
	'slug': 'Dorsky-Gallery-Curatorial-Programs',
	'website': 'http://www.dorsky.org',
	'phone': '(718) 937-6317',
	'address1': '11-03 45th Avenue',
	'address2': '',
	'city': 'Long Island City',
	'neighborhood': 272,
	'coordinates': {
		'lat': '40.74774',
		'long': '-73.94842'
	}
}, {
	'name': 'The Drawing Center',
	'slug': 'The-Drawing-Center',
	'website': 'http://drawingcenter.org/',
	'phone': '(212) 219-2166',
	'address1': '35 Wooster Street',
	'address2': '',
	'city': 'New York',
	'neighborhood': 30,
	'coordinates': {
		'lat': '40.72245',
		'long': '-74.00291'
	}
}, {
	'name': 'EFA Project Space',
	'slug': 'EFA-Project-Space',
	'website': 'http://www.projectspace-efanyc.org/',
	'phone': '(212) 563-5855',
	'address1': '323 West 39th Street',
	'address2': '',
	'city': 'New York',
	'neighborhood': 170,
	'coordinates': {
		'lat': '40.75607',
		'long': '-73.99235'
	}
}, {
	'name': 'El Museo Del Barrio',
	'slug': 'El-Museo-Del-Barrio',
	'website': 'http://www.elmuseo.org',
	'phone': '(212) 831-7272',
	'address1': '1230 Fifth Avenue',
	'address2': '',
	'city': 'New York',
	'neighborhood': 190,
	'coordinates': {
		'lat': '40.79294',
		'long': '-73.95197'
	}
}, {
	'name': 'Elizabeth Harris',
	'slug': 'Elizabeth-Harris',
	'website': 'http://www.elizabethharrisgallery.com',
	'phone': '(212) 463-9666',
	'address1': '529 West 20th Street',
	'address2': '6th floor',
	'city': 'New York',
	'neighborhood': 80,
	'coordinates': {
		'lat': '40.74619',
		'long': '-74.0062'
	}
}, {
	'name': 'Emmanuel Fremin Gallery',
	'slug': 'Emmanuel-Fremin-Gallery',
	'website': 'http://www.emmanuelfremingallery.com',
	'phone': '646 245 3240',
	'address1': '547 West 27th Street ',
	'address2': '# 510',
	'city': 'New York',
	'neighborhood': 150,
	'coordinates': {
		'lat': '40.75142',
		'long': '-74.00429'
	}
}, {
	'name': 'Envoy Enterprises',
	'slug': 'Envoy-Enterprises',
	'website': 'http://www.envoyenterprises.com',
	'phone': '(212) 226-4552',
	'address1': '87 Rivington Street',
	'address2': '',
	'city': 'New York',
	'neighborhood': 20,
	'coordinates': {
		'lat': '40.72005',
		'long': '-73.989'
	}
}, {
	'name': 'Fashion Institute of Technology',
	'slug': 'Fashion-Institute-of-Technology',
	'website': 'http://www.fitnyc.edu/336.asp',
	'phone': '(212) 217-7999',
	'address1': '227 West 27th Street',
	'address2': '@ 7th Avenue',
	'city': 'New York',
	'neighborhood': 150,
	'coordinates': {
		'lat': '40.74702',
		'long': '-73.99453'
	}
}, {
	'name': 'First Street Gallery',
	'slug': 'First-Street-Gallery',
	'website': 'http://www.firststreetgallery.net',
	'phone': '(646) 336-8053',
	'address1': '526 West 26th Street ',
	'address2': 'Suite 209',
	'city': 'New York',
	'neighborhood': 140,
	'coordinates': {
		'lat': '40.74982',
		'long': '-74.00358'
	}
}, {
	'name': 'Fisher Landau Center',
	'slug': 'Fisher-Landau-Center',
	'website': 'http://www.flcart.org',
	'phone': '718 937 0727',
	'address1': '38-27 30th Street',
	'address2': '',
	'city': 'Long Island City',
	'neighborhood': 272,
	'coordinates': {
		'lat': '40.75346',
		'long': '-73.93304'
	}
}, {
	'name': 'FiveMyles',
	'slug': 'FiveMyles',
	'website': 'http://www.fivemyles.org',
	'phone': '(718) 783-4438',
	'address1': '558 St. Johns Place',
	'address2': '',
	'city': 'Brooklyn',
	'neighborhood': 260,
	'coordinates': {
		'lat': '40.67279',
		'long': '-73.95961'
	}
}, {
	'name': 'Flomenhaft Gallery',
	'slug': 'Flomenhaft-Gallery',
	'website': 'http://www.flomenhaftgallery.com',
	'phone': '(212) 268-4952',
	'address1': '547 West 27th Street ',
	'address2': '# 200',
	'city': 'New York',
	'neighborhood': 150,
	'coordinates': {
		'lat': '40.75142',
		'long': '-74.00429'
	}
}, {
	'name': 'Flowers',
	'slug': 'Flowers',
	'website': 'http://www.flowersgallery.com/',
	'phone': '(212) 439-1700',
	'address1': '529 West 20th Street',
	'address2': '3rd floor',
	'city': 'New York',
	'neighborhood': 80,
	'coordinates': {
		'lat': '40.74619',
		'long': '-74.0062'
	}
}, {
	'name': 'Foley',
	'slug': 'Foley',
	'website': 'http://www.foleygallery.com',
	'phone': '(212) 244-9081',
	'address1': '59 Orchard Street',
	'address2': '',
	'city': 'New York',
	'neighborhood': 20,
	'coordinates': {
		'lat': '40.71671',
		'long': '-73.99121'
	}
}, {
	'name': 'Francis M. Naumann Fine Art',
	'slug': 'Francis-M-Naumann-Fine-Art',
	'website': 'http://www.francisnaumann.com',
	'phone': '(212) 582-3201',
	'address1': '24 West 57th Street ',
	'address2': '- suite 305',
	'city': 'New York',
	'neighborhood': 180,
	'coordinates': {
		'lat': '40.76324',
		'long': '-73.97572'
	}
}, {
	'name': 'Fredericks & Freiser',
	'slug': 'Fredericks-Freiser',
	'website': 'http://www.fredericksfreisergallery.com',
	'phone': '(212) 633-6555',
	'address1': '536 West 24th Street',
	'address2': '',
	'city': 'New York',
	'neighborhood': 120,
	'coordinates': {
		'lat': '40.74866',
		'long': '-74.00465'
	}
}, {
	'name': 'Frederico Seve Gallery/ Latin Collector',
	'slug': 'Frederico-Seve-Gallery-Latin-Collector',
	'website': 'http://www.latincollector.com',
	'phone': '212 334 7813',
	'address1': '37 West 57th Street',
	'address2': '',
	'city': 'New York',
	'neighborhood': 180,
	'coordinates': {
		'lat': '40.76408',
		'long': '-73.97591'
	}
}, {
	'name': 'Freight + Volume',
	'slug': 'Freight-Volume',
	'website': 'http://www.freightandvolume.com',
	'phone': '(212) 691-7700',
	'address1': '97 Allen Street',
	'address2': '',
	'city': 'New York',
	'neighborhood': 20,
	'coordinates': {
		'lat': '40.71884',
		'long': '-73.99099'
	}
}, {
	'name': 'Frick Collection',
	'slug': 'Frick-Collection',
	'website': 'http://www.frick.org',
	'phone': '212 288 0700',
	'address1': '1 East 70th Street',
	'address2': '',
	'city': 'New York',
	'neighborhood': 190,
	'coordinates': {
		'lat': '40.77121',
		'long': '-73.96793'
	}
}, {
	'name': 'Albertz Benda',
	'slug': 'Albertz-Benda',
	'website': 'http://www.albertzbenda.com/',
	'phone': '(212) 244-2579',
	'address1': '515 West 26th Street',
	'address2': '',
	'city': 'New York',
	'neighborhood': 140,
	'coordinates': {
		'lat': '40.74985',
		'long': '-74.00316'
	}
}, {
	'name': 'Gagosian (980 Madison)',
	'slug': 'Gagosian-980-Madison-',
	'website': 'http://www.gagosian.com',
	'phone': '(212) 744-2313',
	'address1': '980 Madison Avenue ',
	'address2': '@ 76th',
	'city': 'New York',
	'neighborhood': 190,
	'coordinates': {
		'lat': '40.77466',
		'long': '-73.96344'
	}
}, {
	'name': 'Galerie Lelong',
	'slug': 'Galerie-Lelong',
	'website': 'http://www.galerielelong.com',
	'phone': '(212) 315-0470',
	'address1': '528 West 26th Street',
	'address2': '',
	'city': 'New York',
	'neighborhood': 140,
	'coordinates': {
		'lat': '40.74982',
		'long': '-74.00358'
	}
}, {
	'name': 'Galerie Mourlot',
	'slug': 'Galerie-Mourlot',
	'website': 'http://www.galeriemourlot.com',
	'phone': '212 288 8808',
	'address1': '16 East 79th Street',
	'address2': '',
	'city': 'New York',
	'neighborhood': 190,
	'coordinates': {
		'lat': '40.77629',
		'long': '-73.96278'
	}
}, {
	'name': 'Galerie St. Etienne',
	'slug': 'Galerie-St-Etienne',
	'website': 'http://www.gseart.com',
	'phone': '212 245 6734 ',
	'address1': '24 West 57th Street',
	'address2': '',
	'city': 'New York',
	'neighborhood': 180,
	'coordinates': {
		'lat': '40.76324',
		'long': '-73.97572'
	}
}, {
	'name': 'Gallery 128',
	'slug': 'Gallery-128',
	'website': 'http://www.galleryonetwentyeight.org',
	'phone': '(212) 674-0244',
	'address1': '128 Rivington Street',
	'address2': '',
	'city': 'New York',
	'neighborhood': 20,
	'coordinates': {
		'lat': '40.7198',
		'long': '-73.98682'
	}
}, {
	'name': 'Gallery Henoch',
	'slug': 'Gallery-Henoch',
	'website': 'http://www.galleryhenoch.com',
	'phone': '(917) 305-0003',
	'address1': '555 West 25th Street',
	'address2': '',
	'city': 'New York',
	'neighborhood': 130,
	'coordinates': {
		'lat': '40.74971',
		'long': '-74.00476'
	}
}, {
	'name': 'Gallery MC',
	'slug': 'Gallery-MC',
	'website': 'http://www.gallerymc.org',
	'phone': '212 581 1966',
	'address1': '549 West 52nd Street',
	'address2': '',
	'city': 'New York',
	'neighborhood': 170,
	'coordinates': {
		'lat': '40.76671',
		'long': '-73.99249'
	}
}, {
	'name': 'Gallery Schlesinger',
	'slug': 'Gallery-Schlesinger',
	'website': 'http://http://www.artincontext.org/gallery/gallery_main.aspx?id=43',
	'phone': '212 734 3600',
	'address1': '24 East 73rd Street',
	'address2': '',
	'city': 'New York',
	'neighborhood': 190,
	'coordinates': {
		'lat': '40.77247',
		'long': '-73.96549'
	}
}, {
	'name': 'Garth Greenan Gallery (old)',
	'slug': 'Garth-Greenan-Gallery-old-',
	'website': 'http://www.garthgreenan.com',
	'phone': '(212) 929-1351',
	'address1': '529 West 20th Street ',
	'address2': '10th Floor',
	'city': 'New York',
	'neighborhood': 80,
	'coordinates': {
		'lat': '40.74619',
		'long': '-74.0062'
	}
}, {
	'name': 'George Adams Gallery',
	'slug': 'George-Adams-Gallery',
	'website': 'http://www.georgeadamsgallery.com',
	'phone': '(212) 564-8480',
	'address1': '531 West 26th Street',
	'address2': '',
	'city': 'New York',
	'neighborhood': 140,
	'coordinates': {
		'lat': '40.75004',
		'long': '-74.00362'
	}
}, {
	'name': 'George Billis',
	'slug': 'George-Billis',
	'website': 'http://www.georgebillis.com',
	'phone': '(212) 645-2621',
	'address1': '525 West 26th Street',
	'address2': '',
	'city': 'New York',
	'neighborhood': 140,
	'coordinates': {
		'lat': '40.75004',
		'long': '-74.00362'
	}
}, {
	'name': 'Gitana Rosa Gallery',
	'slug': 'Gitana-Rosa-Gallery',
	'website': 'http://www.gitanarosa.com',
	'phone': '718 387 0115',
	'address1': '19 Hope Street',
	'address2': '',
	'city': 'Brooklyn',
	'neighborhood': 250,
	'coordinates': {
		'lat': '40.71377',
		'long': '-73.95717'
	}
}, {
	'name': 'Gladstone Gallery (24th Street)',
	'slug': 'Gladstone-Gallery-24th-Street-',
	'website': 'http://www.gladstonegallery.com',
	'phone': '(212) 206-9300',
	'address1': '515 West 24th Street',
	'address2': '',
	'city': 'New York',
	'neighborhood': 120,
	'coordinates': {
		'lat': '40.74866',
		'long': '-74.00418'
	}
}, {
	'name': 'Gladstone Gallery (21st Street)',
	'slug': 'Gladstone-Gallery-21st-Street-',
	'website': 'http://www.gladstonegallery.com',
	'phone': '(212) 206-7606',
	'address1': '530 West 21st Street',
	'address2': '',
	'city': 'New York',
	'neighborhood': 90,
	'coordinates': {
		'lat': '40.74684',
		'long': '-74.00674'
	}
}, {
	'name': 'Greene Naftali (Ground Floor)',
	'slug': 'Greene-Naftali-Ground-Floor-',
	'website': 'http://www.greenenaftaligallery.com',
	'phone': '(212) 463-7770',
	'address1': '508 West 26th Street ',
	'address2': 'Ground Floor',
	'city': 'New York',
	'neighborhood': 140,
	'coordinates': {
		'lat': '40.74999',
		'long': '-74.00398'
	}
}, {
	'name': 'Grey Art Gallery at NYU',
	'slug': 'Grey-Art-Gallery-at-NYU',
	'website': 'http://www.nyu.edu/greyart',
	'phone': '(212) 998-6780',
	'address1': '100 Washington Square East',
	'address2': '',
	'city': 'New York',
	'neighborhood': 60,
	'coordinates': {
		'lat': '40.73021',
		'long': '-73.99613'
	}
}, {
	'name': 'Guggenheim Museum',
	'slug': 'Guggenheim-Museum',
	'website': 'http://www.guggenheim.org',
	'phone': '(212) 423-3500',
	'address1': '1071 Fifth Avenue ',
	'address2': '@ 89th',
	'city': 'New York',
	'neighborhood': 190,
	'coordinates': {
		'lat': '40.78309',
		'long': '-73.95916'
	}
}, {
	'name': 'Half Gallery',
	'slug': 'Half-Gallery',
	'website': 'http://www.halfgallery.com',
	'phone': '(212) 744-0151 ',
	'address1': '43 East 78th Street',
	'address2': '',
	'city': 'New York',
	'neighborhood': 190,
	'coordinates': {
		'lat': '40.77564',
		'long': '-73.962'
	}
}, {
	'name': 'Hauser & Wirth (Uptown)',
	'slug': 'Hauser-Wirth-Uptown-',
	'website': 'http://www.hauserwirth.com',
	'phone': '(212) 794-4970',
	'address1': '32 East 69th Street',
	'address2': '',
	'city': 'New York',
	'neighborhood': 190,
	'coordinates': {
		'lat': '40.7696',
		'long': '-73.96649'
	}
}, {
	'name': 'Hewitt Gallery of Art',
	'slug': 'Hewitt-Gallery-of-Art',
	'website': 'http://www.mmm.edu/study/resources/artgallery.html',
	'phone': '212 517 0692',
	'address1': '221 East 71st Street',
	'address2': '',
	'city': 'New York',
	'neighborhood': 190,
	'coordinates': {
		'lat': '40.76894',
		'long': '-73.9606'
	}
}, {
	'name': 'Higher Pictures',
	'slug': 'Higher-Pictures',
	'website': 'http://www.higherpictures.com',
	'phone': '(212) 249-6100',
	'address1': '980 Madison Avenue',
	'address2': '',
	'city': 'New York',
	'neighborhood': 190,
	'coordinates': {
		'lat': '40.77466',
		'long': '-73.96344'
	}
}, {
	'name': 'Howard Scott Gallery',
	'slug': 'Howard-Scott-Gallery',
	'website': 'http://www.howardscottgallery.com',
	'phone': '(646) 486-7004',
	'address1': '529 West 20th Street ',
	'address2': '7th floor',
	'city': 'New York',
	'neighborhood': 80,
	'coordinates': {
		'lat': '40.74619',
		'long': '-74.0062'
	}
}, {
	'name': 'Invisible-Exports',
	'slug': 'Invisible-Exports',
	'website': 'http://www.invisible-exports.com',
	'phone': '(212) 226-5447',
	'address1': '89 Eldridge Street',
	'address2': '',
	'city': 'New York',
	'neighborhood': 20,
	'coordinates': {
		'lat': '40.71734',
		'long': '-73.99261'
	}
}, {
	'name': 'Ippodo Gallery',
	'slug': 'Ippodo-Gallery',
	'website': ' http://www.ippodogallery.com',
	'phone': '(212) 967-4899',
	'address1': '12 East 86th Street ',
	'address2': '#507',
	'city': 'New York',
	'neighborhood': 190,
	'coordinates': {
		'lat': '40.78129',
		'long': '-73.96007'
	}
}, {
	'name': 'Ivy Brown',
	'slug': 'Ivy-Brown',
	'website': 'http://www.ivybrowngallery.com',
	'phone': '212 925 1111',
	'address1': '675 Hudson Street',
	'address2': '',
	'city': 'New York',
	'neighborhood': 60,
	'coordinates': {
		'lat': '40.74021',
		'long': '-74.00535'
	}
}, {
	'name': 'J. Cacciola Gallery',
	'slug': 'J-Cacciola-Gallery',
	'website': 'http://www.jcacciolagallery.com',
	'phone': '(212) 462-4646',
	'address1': '537 West 23rd Street',
	'address2': '',
	'city': 'New York',
	'neighborhood': 110,
	'coordinates': {
		'lat': '40.74831',
		'long': '-74.00541'
	}
}, {
	'name': 'Jack Shainman Gallery (20th Street)',
	'slug': 'Jack-Shainman-Gallery-20th-Street-',
	'website': 'http://www.jackshainman.com',
	'phone': '(212) 645-1701',
	'address1': '513 West 20th Street',
	'address2': '',
	'city': 'New York',
	'neighborhood': 80,
	'coordinates': {
		'lat': '40.74628',
		'long': '-74.0064'
	}
}, {
	'name': 'Jamaica Center for the Arts',
	'slug': 'Jamaica-Center-for-the-Arts',
	'website': 'http://www.jcal.org',
	'phone': '718 658 7400',
	'address1': '161-04 Jamaica Avenue',
	'address2': '',
	'city': 'Queens',
	'neighborhood': 274,
	'coordinates': {
		'lat': '40.7041',
		'long': '-73.79825'
	}
}, {
	'name': 'James Cohan (Chelsea)',
	'slug': 'James-Cohan-Chelsea-',
	'website': 'http://www.jamescohan.com',
	'phone': '(212) 714-9500',
	'address1': '533 West 26th Street',
	'address2': '',
	'city': 'New York',
	'neighborhood': 140,
	'coordinates': {
		'lat': '40.75041',
		'long': '-74.00408'
	}
}, {
	'name': 'James Fuentes',
	'slug': 'James-Fuentes',
	'website': 'http://www.jamesfuentes.com',
	'phone': '(212) 577-1201',
	'address1': '55 Delancy Street',
	'address2': '',
	'city': 'New York',
	'neighborhood': 20,
	'coordinates': {
		'lat': '40.71916',
		'long': '-73.99117'
	}
}, {
	'name': 'James Graham & Sons',
	'slug': 'James-Graham-Sons',
	'website': 'http://www.graham1857.com/',
	'phone': '212 535 5767',
	'address1': '32 East 67th Street',
	'address2': '',
	'city': 'New York',
	'neighborhood': 190,
	'coordinates': {
		'lat': '40.76817',
		'long': '-73.96732'
	}
}, {
	'name': 'Japan Society',
	'slug': 'Japan-Society',
	'website': 'http://www.japansociety.org',
	'phone': '(212) 832-1155',
	'address1': '333 East 47th Street',
	'address2': '',
	'city': 'New York',
	'neighborhood': 170,
	'coordinates': {
		'lat': '40.75213',
		'long': '-73.96791'
	}
}, {
	'name': 'Jenkins Johnson Gallery',
	'slug': 'Jenkins-Johnson-Gallery',
	'website': 'http://www.jenkinsjohnsongallery.com',
	'phone': '212 629 0707',
	'address1': '521 West 26th Street',
	'address2': '#5',
	'city': 'New York',
	'neighborhood': 140,
	'coordinates': {
		'lat': '40.74992',
		'long': '-74.00333'
	}
}, {
	'name': 'Jewish Museum',
	'slug': 'Jewish-Museum',
	'website': 'http://www.thejewishmuseum.org',
	'phone': '(212) 423-3271',
	'address1': '1109 Fifth Avenue ',
	'address2': '@ 92nd',
	'city': 'New York',
	'neighborhood': 190,
	'coordinates': {
		'lat': '40.78533',
		'long': '-73.95752'
	}
}, {
	'name': 'John Davis Gallery',
	'slug': 'John-Davis-Gallery',
	'website': 'http://www.johndavisgallery.com',
	'phone': '(518) 828-5907',
	'address1': '362 1/2 Warren Street',
	'address2': '',
	'city': 'Hudson',
	'neighborhood': 310,
	'coordinates': {
		'lat': '42.251595',
		'long': '-73.7910177'
	}
}, {
	'name': 'Jonathan LeVine Gallery (West 20th Street)',
	'slug': 'Jonathan-LeVine-Gallery-West-20th-Street-',
	'website': 'http://www.jonathanlevinegallery.com',
	'phone': '(212) 243-3822',
	'address1': '529 West 20th Street ',
	'address2': '9th floor',
	'city': 'New York',
	'neighborhood': 80,
	'coordinates': {
		'lat': '40.74619',
		'long': '-74.0062'
	}
}, {
	'name': 'Jos\u00e9e Bienvenu',
	'slug': 'Jos\u00e9e-Bienvenu',
	'website': 'http://www.joseebienvenugallery.com',
	'phone': '(212) 206-7990',
	'address1': '529 West 20th Street',
	'address2': '2nd Floor',
	'city': 'New York',
	'neighborhood': 80,
	'coordinates': {
		'lat': '40.74619',
		'long': '-74.0062'
	}
}, {
	'name': 'Joshua Liner Gallery',
	'slug': 'Joshua-Liner-Gallery',
	'website': 'http://www.joshualinergallery.com',
	'phone': '(212) 244-7415',
	'address1': '540 West 28th Street',
	'address2': '',
	'city': 'New York',
	'neighborhood': 150,
	'coordinates': {
		'lat': '40.75123',
		'long': '-74.00307'
	}
}, {
	'name': 'Julie Saul Gallery',
	'slug': 'Julie-Saul-Gallery',
	'website': 'http://www.saulgallery.com',
	'phone': '(212) 627-2410',
	'address1': '535 West 22nd Street',
	'address2': '6th Floor',
	'city': 'New York',
	'neighborhood': 100,
	'coordinates': {
		'lat': '40.74731',
		'long': '-74.0051'
	}
}, {
	'name': 'June Kelly Gallery',
	'slug': 'June-Kelly-Gallery',
	'website': 'http://www.junekellygallery.com',
	'phone': '212 226 1660',
	'address1': '166 Mercer Street',
	'address2': '',
	'city': 'New York',
	'neighborhood': 30,
	'coordinates': {
		'lat': '40.7254',
		'long': '-73.99781'
	}
}, {
	'name': 'Katonah Museum of Art',
	'slug': 'Katonah-Museum-of-Art',
	'website': 'http://www.katonahmuseum.org',
	'phone': '914 232 9555',
	'address1': '134 Jay Street ',
	'address2': '',
	'city': 'Katonah',
	'neighborhood': 310,
	'coordinates': {
		'lat': '41.2628',
		'long': '-73.67498'
	}
}, {
	'name': 'Kentler International Drawing Space',
	'slug': 'Kentler-International-Drawing-Space',
	'website': 'http://www.kentlergallery.org',
	'phone': '(718) 875-2098',
	'address1': '353 Van Brunt Street',
	'address2': '',
	'city': 'Brooklyn',
	'neighborhood': 220,
	'coordinates': {
		'lat': '40.67686',
		'long': '-74.01314'
	}
}, {
	'name': 'Kim Foster Gallery',
	'slug': 'Kim-Foster-Gallery',
	'website': 'http://www.kimfostergallery.com',
	'phone': '212 229 0044',
	'address1': '529 West 20th Street',
	'address2': '1st floor',
	'city': 'New York',
	'neighborhood': 80,
	'coordinates': {
		'lat': '40.74619',
		'long': '-74.0062'
	}
}, {
	'name': 'The Kitchen',
	'slug': 'The-Kitchen',
	'website': 'http://www.thekitchen.org',
	'phone': '(212) 255-5793',
	'address1': '512 West 19th Street',
	'address2': '',
	'city': 'New York',
	'neighborhood': 70,
	'coordinates': {
		'lat': '40.74531',
		'long': '-74.00639'
	}
}, {
	'name': 'Klompching Gallery',
	'slug': 'Klompching-Gallery',
	'website': 'http://www.klompching.com',
	'phone': '(212) 796-2070',
	'address1': '89 Water Street',
	'address2': '',
	'city': 'Brooklyn',
	'neighborhood': 230,
	'coordinates': {
		'lat': '40.70322',
		'long': '-73.99013'
	}
}, {
	'name': 'Kravets/Wehby',
	'slug': 'Kravets-Wehby',
	'website': 'http://www.kravetswehbygallery.com',
	'phone': '(212) 352-2238',
	'address1': '521 West 21st Street',
	'address2': '',
	'city': 'New York',
	'neighborhood': 90,
	'coordinates': {
		'lat': '40.74719',
		'long': '-74.00616'
	}
}, {
	'name': 'Kerry Schuss',
	'slug': 'Kerry-Schuss',
	'website': 'http://kerryschuss.com',
	'phone': '(212) 219-9918',
	'address1': '34 Orchard Street',
	'address2': '',
	'city': 'New York',
	'neighborhood': 20,
	'coordinates': {
		'lat': '40.71574',
		'long': '-73.99122'
	}
}, {
	'name': 'Laurence Miller Gallery',
	'slug': 'Laurence-Miller-Gallery',
	'website': 'http://www.laurencemillergallery.com',
	'phone': '212 397 3930',
	'address1': '20 West 57th Street',
	'address2': '',
	'city': 'New York',
	'neighborhood': 180,
	'coordinates': {
		'lat': '40.76329',
		'long': '-73.97547'
	}
}, {
	'name': 'Lehman College Art Gallery',
	'slug': 'Lehman-College-Art-Gallery',
	'website': 'http://www.lehman.edu/gallery',
	'phone': '718 960 8731',
	'address1': '250 Bedford Park Blvd. West',
	'address2': '',
	'city': 'Bronx',
	'neighborhood': 280,
	'coordinates': {
		'lat': '40.87457',
		'long': '-73.89206'
	}
}, {
	'name': 'Lehmann Maupin (LES)',
	'slug': 'Lehmann-Maupin-LES-',
	'website': 'http://www.lehmannmaupin.com',
	'phone': '(212) 254-0054',
	'address1': '201 Chrystie Street',
	'address2': '',
	'city': 'New York',
	'neighborhood': 20,
	'coordinates': {
		'lat': '40.72174',
		'long': '-73.99236'
	}
}, {
	'name': 'Lennon, Weinberg, Inc',
	'slug': 'Lennon-Weinberg-Inc',
	'website': 'http://www.lennonweinberg.com',
	'phone': '(212) 941-0012',
	'address1': '514 West 25th Street',
	'address2': '',
	'city': 'New York',
	'neighborhood': 130,
	'coordinates': {
		'lat': '40.74912',
		'long': '-74.00415'
	}
}, {
	'name': 'Leo Castelli Gallery (18 E 77)',
	'slug': 'Leo-Castelli-Gallery-18-E-77-',
	'website': 'http://www.castelligallery.com',
	'phone': '212 249 4470',
	'address1': '18 East 77th Street',
	'address2': '',
	'city': 'New York',
	'neighborhood': 190,
	'coordinates': {
		'lat': '40.77501',
		'long': '-73.96371'
	}
}, {
	'name': 'Lesley Heller Workspace',
	'slug': 'Lesley-Heller-Workspace',
	'website': 'http://www.lesleyheller.com',
	'phone': '(212) 410-6120',
	'address1': '54 Orchard Street',
	'address2': '',
	'city': 'New York',
	'neighborhood': 20,
	'coordinates': {
		'lat': '40.71655',
		'long': '-73.99075'
	}
}, {
	'name': 'Leslie Tonkonow Artworks + Projects',
	'slug': 'Leslie-Tonkonow-Artworks-Projects',
	'website': 'http://www.tonkonow.com',
	'phone': '(212) 255-8450',
	'address1': '535 West 22nd Street',
	'address2': '6th Floor',
	'city': 'New York',
	'neighborhood': 100,
	'coordinates': {
		'lat': '40.74731',
		'long': '-74.0051'
	}
}, {
	'name': 'LMAKprojects',
	'slug': 'LMAKprojects',
	'website': 'http://www.lmakprojects.com',
	'phone': '(212) 255-9707',
	'address1': '298 Grand Street',
	'address2': '',
	'city': 'New York',
	'neighborhood': 20,
	'coordinates': {
		'lat': '40.71779',
		'long': '-73.9919'
	}
}, {
	'name': 'Louis K. Meisel Gallery',
	'slug': 'Louis-K-Meisel-Gallery',
	'website': 'http://www.meiselgallery.com',
	'phone': '212 677 1340',
	'address1': '141 Prince Street',
	'address2': '',
	'city': 'New York',
	'neighborhood': 30,
	'coordinates': {
		'lat': '40.72573',
		'long': '-74.00061'
	}
}, {
	'name': 'Lower East Side Printshop',
	'slug': 'Lower-East-Side-Printshop',
	'website': 'http://www.printshop.org',
	'phone': '212 673 5390',
	'address1': '306 West 37th Street',
	'address2': '',
	'city': 'New York',
	'neighborhood': 170,
	'coordinates': {
		'lat': '40.75408',
		'long': '-73.9923'
	}
}, {
	'name': 'Ludlow 38',
	'slug': 'Ludlow-38',
	'website': 'http://www.ludlow38.org',
	'phone': '(212) 228-6848',
	'address1': '38 Ludlow Street',
	'address2': '',
	'city': 'New York',
	'neighborhood': 20,
	'coordinates': {
		'lat': '40.71608',
		'long': '-73.99012'
	}
}, {
	'name': 'Luhring Augustine (Chelsea)',
	'slug': 'Luhring-Augustine-Chelsea-',
	'website': 'http://www.luhringaugustine.com',
	'phone': '(212) 206-9100',
	'address1': '531 West 24th Street',
	'address2': '',
	'city': 'New York',
	'neighborhood': 120,
	'coordinates': {
		'lat': '40.74866',
		'long': '-74.00418'
	}
}, {
	'name': 'Luise Ross',
	'slug': 'Luise-Ross',
	'website': 'http://www.luiserossgallery.com',
	'phone': '(212) 343-2161',
	'address1': '547 West 27th Street ',
	'address2': '# 504',
	'city': 'New York',
	'neighborhood': 150,
	'coordinates': {
		'lat': '40.75142',
		'long': '-74.00429'
	}
}, {
	'name': 'Lyons Wier Gallery',
	'slug': 'Lyons-Wier-Gallery',
	'website': 'http://www.lyonswiergallery.com/',
	'phone': '(212) 242-6220',
	'address1': '542 West 24th Street',
	'address2': '',
	'city': 'New York',
	'neighborhood': 120,
	'coordinates': {
		'lat': '40.74866',
		'long': '-74.00465'
	}
}, {
	'name': 'Miyako Yoshinaga',
	'slug': 'Miyako-Yoshinaga',
	'website': 'http://www.miyakoyoshinaga.com/',
	'phone': '(212) 268-7132',
	'address1': '547 West 27th Street ',
	'address2': '# 204',
	'city': 'New York',
	'neighborhood': 150,
	'coordinates': {
		'lat': '40.75142',
		'long': '-74.00429'
	}
}, {
	'name': 'Maccarone (Greenwich St.)',
	'slug': 'Maccarone-Greenwich-St-',
	'website': 'http://www.maccarone.net',
	'phone': '(212) 431-4977',
	'address1': '630 Greenwich Street',
	'address2': '',
	'city': 'New York',
	'neighborhood': 60,
	'coordinates': {
		'lat': '40.73087',
		'long': '-74.00815'
	}
}, {
	'name': 'Madison Square Park',
	'slug': 'Madison-Square-Park',
	'website': 'http://www.madisonsquarepark.org',
	'phone': '212 538 4689',
	'address1': '23 Street b/t Madison & 5th',
	'address2': '',
	'city': 'New York',
	'neighborhood': 160,
	'coordinates': {
		'lat': '40.7420371',
		'long': '-73.9897522'
	}
}, {
	'name': 'Magnan Metz Gallery',
	'slug': 'Magnan-Metz-Gallery',
	'website': 'http://magnanmetz.com/',
	'phone': '(212) 244-2344',
	'address1': '521 West 26th Street',
	'address2': '2',
	'city': 'New York',
	'neighborhood': 140,
	'coordinates': {
		'lat': '40.74992',
		'long': '-74.00333'
	}
}, {
	'name': 'Marc Jancou',
	'slug': 'Marc-Jancou',
	'website': 'http://www.marcjancou.com/',
	'phone': '(212) 473-2100',
	'address1': '24 West 57th Street ',
	'address2': '6th Floor',
	'city': 'New York',
	'neighborhood': 180,
	'coordinates': {
		'lat': '40.76324',
		'long': '-73.97572'
	}
}, {
	'name': 'Margaret Thatcher Projects',
	'slug': 'Margaret-Thatcher-Projects',
	'website': 'http://www.thatcherprojects.com',
	'phone': '(212) 675-0222',
	'address1': '539 West 23rd Street',
	'address2': '',
	'city': 'New York',
	'neighborhood': 110,
	'coordinates': {
		'lat': '40.74831',
		'long': '-74.00541'
	}
}, {
	'name': 'Marian Goodman Gallery (floor 4)',
	'slug': 'Marian-Goodman-Gallery-floor-4-',
	'website': 'http://www.mariangoodman.com',
	'phone': '(212) 977-7160',
	'address1': '24 West 57th Street ',
	'address2': '- floor 4',
	'city': 'New York',
	'neighborhood': 180,
	'coordinates': {
		'lat': '40.76324',
		'long': '-73.97572'
	}
}, {
	'name': 'Marianne Boesky (Uptown)',
	'slug': 'Marianne-Boesky-Uptown-',
	'website': 'http://www.marianneboeskygallery.com',
	'phone': '(212) 680-9889',
	'address1': '118 East 64th Street',
	'address2': '',
	'city': 'New York',
	'neighborhood': 190,
	'coordinates': {
		'lat': '40.76553',
		'long': '-73.96692'
	}
}, {
	'name': 'Marlborough Contemporary',
	'slug': 'Marlborough-Contemporary',
	'website': 'http://www.marlboroughgallery.com',
	'phone': '(212) 463-8634',
	'address1': '545 West 25th Street',
	'address2': '',
	'city': 'New York',
	'neighborhood': 130,
	'coordinates': {
		'lat': '40.74945',
		'long': '-74.00413'
	}
}, {
	'name': 'Mary Boone Gallery (5th Avenue)',
	'slug': 'Mary-Boone-Gallery-5th-Avenue-',
	'website': 'http://www.maryboonegallery.com',
	'phone': '(212) 752-2929',
	'address1': '745 Fifth Avenue',
	'address2': '',
	'city': 'New York',
	'neighborhood': 180,
	'coordinates': {
		'lat': '40.76436',
		'long': '-73.97649'
	}
}, {
	'name': 'Mary Ryan Gallery',
	'slug': 'Mary-Ryan-Gallery',
	'website': 'http://www.maryryangallery.com',
	'phone': '212 397 0669',
	'address1': '515 West 26th Street',
	'address2': '',
	'city': 'New York',
	'neighborhood': 140,
	'coordinates': {
		'lat': '40.74985',
		'long': '-74.00316'
	}
}, {
	'name': 'Matthew Marks (522 West 22)',
	'slug': 'Matthew-Marks-522-West-22-',
	'website': 'http://www.matthewmarks.com',
	'phone': '(212) 243-0200',
	'address1': '522 West 22nd Street',
	'address2': '',
	'city': 'New York',
	'neighborhood': 100,
	'coordinates': {
		'lat': '40.74735',
		'long': '-74.00567'
	}
}, {
	'name': 'McKenzie Fine Art Inc.',
	'slug': 'McKenzie-Fine-Art-Inc-',
	'website': 'http://www.mckenziefineart.com',
	'phone': '(212) 989-5467',
	'address1': '55 Orchard Street',
	'address2': '',
	'city': 'New York',
	'neighborhood': 20,
	'coordinates': {
		'lat': '40.71671',
		'long': '-73.99121'
	}
}, {
	'name': 'Michael Rosenfeld Gallery',
	'slug': 'Michael-Rosenfeld-Gallery',
	'website': 'http://www.michaelrosenfeldart.com',
	'phone': '(212) 247-0082',
	'address1': '100 Eleventh Avenue',
	'address2': '',
	'city': 'New York',
	'neighborhood': 70,
	'coordinates': {
		'lat': '40.74616',
		'long': '-74.00762'
	}
}, {
	'name': 'Michael Werner',
	'slug': 'Michael-Werner',
	'website': 'http://www.michaelwerner.com',
	'phone': '(212) 988-1623',
	'address1': '4 East 77th Street',
	'address2': '',
	'city': 'New York',
	'neighborhood': 190,
	'coordinates': {
		'lat': '40.77524',
		'long': '-73.96426'
	}
}, {
	'name': 'Miguel Abreu Gallery (Orchard)',
	'slug': 'Miguel-Abreu-Gallery-Orchard-',
	'website': 'http://www.miguelabreugallery.com',
	'phone': '(212) 995-1774',
	'address1': '36 Orchard Street',
	'address2': '',
	'city': 'New York',
	'neighborhood': 20,
	'coordinates': {
		'lat': '40.7158',
		'long': '-73.9912'
	}
}, {
	'name': 'Mitchell-Innes & Nash (Upper East Side)',
	'slug': 'Mitchell-Innes-Nash-Upper-East-Side-',
	'website': 'http://www.miandn.com',
	'phone': '(212) 744-7400',
	'address1': '1018 Madison Avenue',
	'address2': '',
	'city': 'New York',
	'neighborhood': 190,
	'coordinates': {
		'lat': '40.77606',
		'long': '-73.96271'
	}
}, {
	'name': 'Morgan Library, The',
	'slug': 'Morgan-Library-The',
	'website': 'http://www.themorgan.org',
	'phone': '(212) 590-0393',
	'address1': '225 Madison Avenue',
	'address2': '',
	'city': 'New York',
	'neighborhood': 170,
	'coordinates': {
		'lat': '40.74934',
		'long': '-73.98169'
	}
}, {
	'name': 'Meredith Ward Fine Art',
	'slug': 'Meredith-Ward-Fine-Art',
	'website': 'http://www.meredithwardfineart.com',
	'phone': '212 744 7306',
	'address1': '44 East 74th Street',
	'address2': '',
	'city': 'New York',
	'neighborhood': 190,
	'coordinates': {
		'lat': '40.77255',
		'long': '-73.96375'
	}
}, {
	'name': 'Metro Pictures',
	'slug': 'Metro-Pictures',
	'website': 'http://www.metropicturesgallery.com',
	'phone': '(212) 206-7100',
	'address1': '519 West 24th Street',
	'address2': '',
	'city': 'New York',
	'neighborhood': 120,
	'coordinates': {
		'lat': '40.74866',
		'long': '-74.00418'
	}
}, {
	'name': 'Metropolitan Museum of Art',
	'slug': 'Metropolitan-Museum-of-Art',
	'website': 'http://www.metmuseum.org',
	'phone': '(212) 535-7710',
	'address1': '1000 Fifth Avenue ',
	'address2': '@ 82nd',
	'city': 'New York',
	'neighborhood': 190,
	'coordinates': {
		'lat': '40.77878',
		'long': '-73.9623'
	}
}, {
	'name': 'Mitchell-Innes & Nash (Chelsea)',
	'slug': 'Mitchell-Innes-Nash-Chelsea-',
	'website': 'http://www.miandn.com',
	'phone': '(212) 744-7400',
	'address1': '534 West 26th Street',
	'address2': '',
	'city': 'New York',
	'neighborhood': 140,
	'coordinates': {
		'lat': '40.74999',
		'long': '-74.00398'
	}
}, {
	'name': 'Muriel Guepin Gallery',
	'slug': 'Muriel-Guepin-Gallery',
	'website': 'http://www.murielguepingallery.com',
	'phone': '(347) 244-1052',
	'address1': '83 Orchard Street',
	'address2': '',
	'city': 'New York',
	'neighborhood': 20,
	'coordinates': {
		'lat': '40.71766',
		'long': '-73.99056'
	}
}, {
	'name': 'Murray Guy',
	'slug': 'Murray-Guy',
	'website': 'http://www.murrayguy.com',
	'phone': '(212) 463-7372',
	'address1': '453 West 17th Street ',
	'address2': '#3SW',
	'city': 'New York',
	'neighborhood': 70,
	'coordinates': {
		'lat': '40.744',
		'long': '-74.00612'
	}
}, {
	'name': 'Museum of Modern Art',
	'slug': 'Museum-of-Modern-Art',
	'website': 'http://www.moma.org',
	'phone': '(212) 708-9400',
	'address1': '11 West 53rd Street',
	'address2': '',
	'city': 'New York',
	'neighborhood': 170,
	'coordinates': {
		'lat': '40.76073',
		'long': '-73.97635'
	}
}, {
	'name': 'Museum of the City of New York',
	'slug': 'Museum-of-the-City-of-New-York',
	'website': 'http://www.mcny.org',
	'phone': '212 534 1672',
	'address1': '1220 Fifth Avenue',
	'address2': '',
	'city': 'New York',
	'neighborhood': 190,
	'coordinates': {
		'lat': '40.79224',
		'long': '-73.95248'
	}
}, {
	'name': 'Nancy Hoffman Gallery',
	'slug': 'Nancy-Hoffman-Gallery',
	'website': 'http://www.nancyhoffmangallery.com',
	'phone': '(212) 966-6676',
	'address1': '520 West 27th Street',
	'address2': '',
	'city': 'New York',
	'neighborhood': 150,
	'coordinates': {
		'lat': '40.75053',
		'long': '-74.00364'
	}
}, {
	'name': 'Nancy Margolis',
	'slug': 'Nancy-Margolis',
	'website': 'http://www.nancymargolisgallery.com',
	'phone': '(212) 242-3013',
	'address1': '523 West 25th Street',
	'address2': '',
	'city': 'New York',
	'neighborhood': 130,
	'coordinates': {
		'lat': '40.74945',
		'long': '-74.00413'
	}
}, {
	'name': 'Nassau County Museum of Art',
	'slug': 'Nassau-County-Museum-of-Art',
	'website': 'http://www.nassaumuseum.com',
	'phone': '516 484 9337',
	'address1': '1 Museum Drive',
	'address2': '',
	'city': 'Roslyn Harbor',
	'neighborhood': 300,
	'coordinates': {
		'lat': '40.80967',
		'long': '-73.64337'
	}
}, {
	'name': 'National Academy Museum',
	'slug': 'National-Academy-Museum',
	'website': 'http://www.nationalacademy.org',
	'phone': '(212) 369-4880',
	'address1': '1083 5th Avenue ',
	'address2': '@ 89',
	'city': 'New York',
	'neighborhood': 190,
	'coordinates': {
		'lat': '40.78398',
		'long': '-73.95852'
	}
}, {
	'name': 'National Arts Club',
	'slug': 'National-Arts-Club',
	'website': 'http://www.nationalartsclub.org',
	'phone': '212 475 3424',
	'address1': '15 Grammercy Park South',
	'address2': '',
	'city': 'New York',
	'neighborhood': 160,
	'coordinates': {
		'lat': '40.73756',
		'long': '-73.98667'
	}
}, {
	'name': 'New Museum',
	'slug': 'New-Museum',
	'website': 'http://www.newmuseum.org',
	'phone': '(212) 219-1222',
	'address1': '235 Bowery',
	'address2': '',
	'city': 'New York',
	'neighborhood': 20,
	'coordinates': {
		'lat': '40.72204',
		'long': '-73.99281'
	}
}, {
	'name': 'New York Academy of Art',
	'slug': 'New-York-Academy-of-Art',
	'website': 'http://www.nyaa.edu',
	'phone': '(212) 966-0300',
	'address1': '111 Franklin Street',
	'address2': '',
	'city': 'New York',
	'neighborhood': 10,
	'coordinates': {
		'lat': '40.71838',
		'long': '-74.0061'
	}
}, {
	'name': 'New York Public Library (Mid-Manhattan Branch)',
	'slug': 'New-York-Public-Library-Mid-Manhattan-Branch-',
	'website': 'http://www.nypl.org',
	'phone': '(212) 340-0871',
	'address1': '455 Fifth Avenue',
	'address2': '',
	'city': 'New York',
	'neighborhood': 170,
	'coordinates': {
		'lat': '40.75199',
		'long': '-73.98185'
	}
}, {
	'name': 'New York Studio School',
	'slug': 'New-York-Studio-School',
	'website': 'http://www.nyss.org',
	'phone': '(212) 673-6466',
	'address1': '8 West 8th Street',
	'address2': '',
	'city': 'New York',
	'neighborhood': 60,
	'coordinates': {
		'lat': '40.73249',
		'long': '-73.99715'
	}
}, {
	'name': 'Nicelle Beauchene',
	'slug': 'Nicelle-Beauchene',
	'website': 'http://www.nicellebeauchene.com',
	'phone': '(212) 375-8043',
	'address1': '327 Broome Street',
	'address2': '',
	'city': 'New York',
	'neighborhood': 20,
	'coordinates': {
		'lat': '40.71903',
		'long': '-73.99383'
	}
}, {
	'name': 'Nicole Klagsbrun',
	'slug': 'Nicole-Klagsbrun',
	'website': 'http://www.nicoleklagsbrun.com',
	'phone': '(212) 243-3335',
	'address1': '526 West 26th Street ',
	'address2': '#318',
	'city': 'New York',
	'neighborhood': 140,
	'coordinates': {
		'lat': '40.74982',
		'long': '-74.00358'
	}
}, {
	'name': 'Nippon Gallery',
	'slug': 'Nippon-Gallery',
	'website': 'http://www.nipponclub.org',
	'phone': '212 581 2223',
	'address1': '145 West 57th Street',
	'address2': '',
	'city': 'New York',
	'neighborhood': 180,
	'coordinates': {
		'lat': '40.76524',
		'long': '-73.97865'
	}
}, {
	'name': 'No Longer Empty',
	'slug': 'No-Longer-Empty',
	'website': 'http://nolongerempty.org/',
	'phone': 'no phone',
	'address1': '447 West 16th Street ',
	'address2': 'near 10th Avenue',
	'city': 'New York',
	'neighborhood': 70,
	'coordinates': {
		'lat': '40.66088',
		'long': '-73.98084'
	}
}, {
	'name': 'Noho Gallery',
	'slug': 'Noho-Gallery',
	'website': 'http://www.nohogallery.com',
	'phone': '(212) 367-7063',
	'address1': '530 West 25th Street ',
	'address2': '4th Floor',
	'city': 'New York',
	'neighborhood': 130,
	'coordinates': {
		'lat': '40.74926',
		'long': '-74.00414'
	}
}, {
	'name': 'Cindy Rucker Gallery',
	'slug': 'Cindy-Rucker-Gallery',
	'website': 'http://www.cindyruckergallery.com/',
	'phone': '(212) 388-9311',
	'address1': '141 Attorney Street',
	'address2': '',
	'city': 'New York',
	'neighborhood': 20,
	'coordinates': {
		'lat': '40.71989',
		'long': '-73.98388'
	}
}, {
	'name': 'NURTUREart',
	'slug': 'NURTUREart',
	'website': 'http://www.nurtureart.org',
	'phone': '(718) 782-7755',
	'address1': '56 Bogart Street',
	'address2': '',
	'city': 'Brooklyn',
	'neighborhood': 240,
	'coordinates': {
		'lat': '40.70571',
		'long': '-73.93331'
	}
}, {
	'name': 'Onishi Gallery',
	'slug': 'Onishi-Gallery',
	'website': 'http://www.onishigallery.com',
	'phone': '212 695 8035',
	'address1': '521 West 26th Street',
	'address2': '3',
	'city': 'New York',
	'neighborhood': 140,
	'coordinates': {
		'lat': '40.74992',
		'long': '-74.00333'
	}
}, {
	'name': 'Pace Gallery (32 E 57)',
	'slug': 'Pace-Gallery-32-E-57-',
	'website': 'www.pacegallery.com',
	'phone': '212 421 3292',
	'address1': '32 East 57th Street',
	'address2': '',
	'city': 'New York',
	'neighborhood': 180,
	'coordinates': {
		'lat': '40.76184',
		'long': '-73.97208'
	}
}, {
	'name': 'Pace Prints (Chelsea)',
	'slug': 'Pace-Prints-Chelsea-',
	'website': 'http://www.paceprints.com',
	'phone': '(212) 629-6100',
	'address1': '521 West 26th Street ',
	'address2': '3rd Floor',
	'city': 'New York',
	'neighborhood': 140,
	'coordinates': {
		'lat': '40.74992',
		'long': '-74.00333'
	}
}, {
	'name': 'The Painting Center',
	'slug': 'The-Painting-Center',
	'website': 'http://www.thepaintingcenter.org',
	'phone': '(212) 343-1060',
	'address1': '547 West 27th Street ',
	'address2': '# 500',
	'city': 'New York',
	'neighborhood': 150,
	'coordinates': {
		'lat': '40.75142',
		'long': '-74.00429'
	}
}, {
	'name': 'Park Avenue Armory (IFPDA)',
	'slug': 'Park-Avenue-Armory-IFPDA-',
	'website': 'http://www.ifpda.org/content/print-fair',
	'phone': '(212) 674-6095',
	'address1': '643 Park Avenue ',
	'address2': '@ 67th St.',
	'city': 'New York',
	'neighborhood': 190,
	'coordinates': {
		'lat': '40.76755',
		'long': '-73.9663'
	}
}, {
	'name': 'Paul Kasmin (515 West 27th Street)',
	'slug': 'Paul-Kasmin-515-West-27th-Street-',
	'website': 'http://www.paulkasmingallery.com',
	'phone': '(212) 563-4474',
	'address1': '515 West 27th Street',
	'address2': '',
	'city': 'New York',
	'neighborhood': 150,
	'coordinates': {
		'lat': '40.7505',
		'long': '-74.0028'
	}
}, {
	'name': 'Paula Cooper (521 W 21)',
	'slug': 'Paula-Cooper-521-W-21-',
	'website': 'http://www.paulacoopergallery.com',
	'phone': '(212) 255-1105',
	'address1': '521 West 21st Street',
	'address2': '',
	'city': 'New York',
	'neighborhood': 90,
	'coordinates': {
		'lat': '40.74719',
		'long': '-74.00616'
	}
}, {
	'name': 'Pavel Zoubok Gallery',
	'slug': 'Pavel-Zoubok-Gallery',
	'website': 'http://www.pavelzoubok.com',
	'phone': '(212) 675-7490',
	'address1': '531 West 26st Street',
	'address2': 'Second Floor',
	'city': 'New York',
	'neighborhood': 140,
	'coordinates': {
		'lat': '40.75004',
		'long': '-74.00362'
	}
}, {
	'name': 'Peter Blum (Blumarts Inc.)',
	'slug': 'Peter-Blum-Blumarts-Inc-',
	'website': 'http://www.peterblumgallery.com',
	'phone': '(212) 244-6055',
	'address1': '176 Grand Street',
	'address2': '',
	'city': 'New York',
	'neighborhood': 30,
	'coordinates': {
		'lat': '',
		'long': ''
	}
}, {
	'name': 'Phoenix Gallery',
	'slug': 'Phoenix-Gallery',
	'website': 'http://www.phoenix-gallery.com',
	'phone': '(212) 226-8711',
	'address1': '548 West 28th Street ',
	'address2': 'Suite 528',
	'city': 'New York',
	'neighborhood': 130,
	'coordinates': {
		'lat': '40.75133',
		'long': '-74.0033'
	}
}, {
	'name': 'Pierogi\u2019s Boiler',
	'slug': 'Pierogi-s-Boiler',
	'website': 'http://www.pierogi2000.com',
	'phone': '718 599 2144',
	'address1': '191 North 14th Street',
	'address2': '',
	'city': 'Brooklyn',
	'neighborhood': 250,
	'coordinates': {
		'lat': '40.7229231',
		'long': '-73.9574177'
	}
}, {
	'name': 'Pleiades Gallery',
	'slug': 'Pleiades-Gallery',
	'website': 'http://www.pleiadesgallery.com',
	'phone': '(646) 230-0056',
	'address1': '530 West 25th Street ',
	'address2': '#405',
	'city': 'New York',
	'neighborhood': 130,
	'coordinates': {
		'lat': '40.74926',
		'long': '-74.00414'
	}
}, {
	'name': 'Postmasters',
	'slug': 'Postmasters',
	'website': 'http://www.postmastersart.com',
	'phone': '(212) 727-3323',
	'address1': '54 Franklin Street',
	'address2': '',
	'city': 'New York',
	'neighborhood': 10,
	'coordinates': {
		'lat': '40.71722',
		'long': '-74.00287'
	}
}, {
	'name': 'PPOW',
	'slug': 'PPOW',
	'website': 'http://www.ppowgallery.com',
	'phone': '(212) 647-1044',
	'address1': '535 West 22nd Street ',
	'address2': '3rd Floor',
	'city': 'New York',
	'neighborhood': 100,
	'coordinates': {
		'lat': '40.74731',
		'long': '-74.0051'
	}
}, {
	'name': 'Pratt Manhattan Gallery',
	'slug': 'Pratt-Manhattan-Gallery',
	'website': 'http://www.pratt.edu/exhibitions',
	'phone': '718 636 3635',
	'address1': '144 West 14th Street ',
	'address2': 'Second Floor',
	'city': 'New York',
	'neighborhood': 70,
	'coordinates': {
		'lat': '40.73781',
		'long': '-73.99815'
	}
}, {
	'name': 'Prince Street Gallery',
	'slug': 'Prince-Street-Gallery',
	'website': 'http://www.princestreetgallery.com',
	'phone': '(646) 230-0246',
	'address1': '530 West 25th Street ',
	'address2': '4th Floor',
	'city': 'New York',
	'neighborhood': 130,
	'coordinates': {
		'lat': '40.74926',
		'long': '-74.00414'
	}
}, {
	'name': 'MoMA PS1',
	'slug': 'MoMA-PS1',
	'website': 'http://www.momaps1.org',
	'phone': '718 784 2084',
	'address1': '22-25 Jackson Avenue',
	'address2': '',
	'city': 'Long Island City',
	'neighborhood': 272,
	'coordinates': {
		'lat': '40.74527',
		'long': '-73.9442'
	}
}, {
	'name': 'Public Art Fund - Metrotech',
	'slug': 'Public-Art-Fund-Metrotech',
	'website': 'http://www.publicartfund.org',
	'phone': '(212) 721-5350',
	'address1': 'MetroTech Commons',
	'address2': 'between Jay Street and Flatbush Avenue at Myrtle Avenue',
	'city': 'New York',
	'neighborhood': 230,
	'coordinates': {
		'lat': '40.6930714',
		'long': '-73.9868727'
	}
}, {
	'name': 'Public Art Fund-City Hall Park',
	'slug': 'Public-Art-Fund-City-Hall-Park',
	'website': 'http://www.publicartfund.org',
	'phone': '(212) 980-4575',
	'address1': 'Broadway Park Row & Chambers Street',
	'address2': '',
	'city': 'New York',
	'neighborhood': 10,
	'coordinates': {
		'lat': '40.7127744',
		'long': '-74.0082477'
	}
}, {
	'name': 'Rachel Uffner Gallery',
	'slug': 'Rachel-Uffner-Gallery',
	'website': 'http://www.racheluffnergallery.com',
	'phone': '(212) 274-0064',
	'address1': '170 Suffolk Street',
	'address2': '',
	'city': 'New York',
	'neighborhood': 20,
	'coordinates': {
		'lat': '40.72117',
		'long': '-73.98458'
	}
}, {
	'name': 'Reena Spaulings Fine Art',
	'slug': 'Reena-Spaulings-Fine-Art',
	'website': 'http://www.reenaspaulings.com',
	'phone': '(212) 477-5006',
	'address1': '165 East Broadway',
	'address2': '',
	'city': 'New York',
	'neighborhood': 20,
	'coordinates': {
		'lat': '40.71382',
		'long': '-73.98998'
	}
}, {
	'name': 'Ricco Maresca',
	'slug': 'Ricco-Maresca',
	'website': 'http://www.riccomaresca.com',
	'phone': '(212) 627-4819',
	'address1': '529 West 20th Street ',
	'address2': '3rd Floor',
	'city': 'New York',
	'neighborhood': 80,
	'coordinates': {
		'lat': '40.74619',
		'long': '-74.0062'
	}
}, {
	'name': 'Robert Mann Gallery',
	'slug': 'Robert-Mann-Gallery',
	'website': 'http://www.robertmann.com',
	'phone': '(212) 989-7600',
	'address1': '525 West 26th Street ',
	'address2': '2nd Floor',
	'city': 'New York',
	'neighborhood': 140,
	'coordinates': {
		'lat': '40.75004',
		'long': '-74.00362'
	}
}, {
	'name': 'Robert Miller Gallery',
	'slug': 'Robert-Miller-Gallery',
	'website': 'http://www.robertmillergallery.com',
	'phone': '(212) 366-4774',
	'address1': '524 West 26th Street',
	'address2': '',
	'city': 'New York',
	'neighborhood': 140,
	'coordinates': {
		'lat': '40.74982',
		'long': '-74.00358'
	}
}, {
	'name': 'Rubin Museum of Art',
	'slug': 'Rubin-Museum-of-Art',
	'website': 'http://www.rmanyc.org',
	'phone': '(212) 620-5000',
	'address1': '150 West 17th Street',
	'address2': '',
	'city': 'New York',
	'neighborhood': 70,
	'coordinates': {
		'lat': '40.740088',
		'long': '-73.9999439'
	}
}, {
	'name': 'Rush Arts Gallery',
	'slug': 'Rush-Arts-Gallery',
	'website': 'http://www.rushartsgallery.org',
	'phone': '212 691 9552',
	'address1': '526 West 26th Street',
	'address2': '#311',
	'city': 'New York',
	'neighborhood': 140,
	'coordinates': {
		'lat': '40.74982',
		'long': '-74.00358'
	}
}, {
	'name': 'Salena Gallery (Long Island University/ Brooklyn Campus)',
	'slug': 'Salena-Gallery-Long-Island-University-Brooklyn-Campus-',
	'website': 'http://',
	'phone': '(718) 488-1198',
	'address1': '1 University Plaza',
	'address2': '',
	'city': 'Brooklyn',
	'neighborhood': 230,
	'coordinates': {
		'lat': '40.69002',
		'long': '-73.98276'
	}
}, {
	'name': 'Salon 94 Freemans',
	'slug': 'Salon-94-Freemans',
	'website': 'http://www.salon94.com',
	'phone': '(212) 529-7400',
	'address1': '1 Freeman Alley',
	'address2': '',
	'city': 'New York',
	'neighborhood': 20,
	'coordinates': {
		'lat': '40.72143',
		'long': '-73.99281'
	}
}, {
	'name': 'SculptureCenter',
	'slug': 'SculptureCenter',
	'website': 'http://www.sculpture-center.org',
	'phone': '718 361 1750',
	'address1': '44 -19 Purves Street',
	'address2': '',
	'city': 'Long Island City',
	'neighborhood': 272,
	'coordinates': {
		'lat': '40.7469232',
		'long': '-73.9430924'
	}
}, {
	'name': 'Sean Kelly',
	'slug': 'Sean-Kelly',
	'website': 'http://www.skny.com',
	'phone': '(212) 239-1181',
	'address1': '475 Tenth Avenue ',
	'address2': '@ 36th Street',
	'city': 'New York',
	'neighborhood': 170,
	'coordinates': {
		'lat': '40.75618',
		'long': '-73.99808'
	}
}, {
	'name': 'Sears-Peyton Gallery',
	'slug': 'Sears-Peyton-Gallery',
	'website': 'http://www.searspeyton.com',
	'phone': '(212) 966-7469',
	'address1': '210 11th Avenue ',
	'address2': 'Suite 802',
	'city': 'New York',
	'neighborhood': 120,
	'coordinates': {
		'lat': '40.74984',
		'long': '-74.00591'
	}
}, {
	'name': 'Senior & Shopmaker Gallery',
	'slug': 'Senior-Shopmaker-Gallery',
	'website': 'http://www.seniorandshopmaker.com',
	'phone': '(212) 213-6767',
	'address1': '210 11th Avenue',
	'address2': '8th Floor',
	'city': 'New York',
	'neighborhood': 120,
	'coordinates': {
		'lat': '40.74984',
		'long': '-74.00591'
	}
}, {
	'name': 'Sideshow',
	'slug': 'Sideshow',
	'website': 'http://www.sideshowgallery.com',
	'phone': '(718) 486-8180',
	'address1': '319 Bedford Avenue',
	'address2': '',
	'city': 'Brooklyn',
	'neighborhood': 250,
	'coordinates': {
		'lat': '40.71289',
		'long': '-73.96232'
	}
}, {
	'name': 'Sidney Mishkin Gallery at Baruch College',
	'slug': 'Sidney-Mishkin-Gallery-at-Baruch-College',
	'website': 'http://www.baruch.cuny.edu/wsas/artsculture/mishkingallery',
	'phone': '(646) 660-6652',
	'address1': '135 East 22nd Street',
	'address2': '',
	'city': 'New York',
	'neighborhood': 160,
	'coordinates': {
		'lat': '40.73887',
		'long': '-73.98509'
	}
}, {
	'name': 'Sikkema Jenkins & Co.',
	'slug': 'Sikkema-Jenkins-Co-',
	'website': 'http://www.sikkemajenkinsco.com',
	'phone': '(212) 929-2262',
	'address1': '530 West 22nd Street',
	'address2': '',
	'city': 'New York',
	'neighborhood': 100,
	'coordinates': {
		'lat': '40.74735',
		'long': '-74.00567'
	}
}, {
	'name': 'Skarstedt (Uptown)',
	'slug': 'Skarstedt-Uptown-',
	'website': 'http://www.skarstedt.com',
	'phone': '(212) 737-2060',
	'address1': '20 East 79th Street',
	'address2': '',
	'city': 'New York',
	'neighborhood': 190,
	'coordinates': {
		'lat': '40.77633',
		'long': '-73.96288'
	}
}, {
	'name': 'Skoto Gallery',
	'slug': 'Skoto-Gallery',
	'website': 'http://www.skotogallery.com',
	'phone': '(212) 352-8058',
	'address1': '529 West 20th Street ',
	'address2': '5th Floor',
	'city': 'New York',
	'neighborhood': 80,
	'coordinates': {
		'lat': '40.74619',
		'long': '-74.0062'
	}
}, {
	'name': 'Slag',
	'slug': 'Slag',
	'website': 'http://www.slaggallery.com',
	'phone': '(212) 967-9818',
	'address1': '56 Bogart Street ',
	'address2': 'Ground Floor',
	'city': 'Brooklyn',
	'neighborhood': 240,
	'coordinates': {
		'lat': '40.70571',
		'long': '-73.93331'
	}
}, {
	'name': 'Soho20',
	'slug': 'Soho20',
	'website': 'http://www.soho20gallery.com',
	'phone': ' (718) 366-3661',
	'address1': '56 Bogart Street ',
	'address2': '',
	'city': 'Brooklyn ',
	'neighborhood': 240,
	'coordinates': {
		'lat': '',
		'long': ''
	}
}, {
	'name': 'Soufer Gallery',
	'slug': 'Soufer-Gallery',
	'website': 'http://www.soufergallery.com',
	'phone': '212 628 3225',
	'address1': '1015 Madison Avenue',
	'address2': '',
	'city': 'New York',
	'neighborhood': 190,
	'coordinates': {
		'lat': '40.77579',
		'long': '-73.96218'
	}
}, {
	'name': 'Southfirst',
	'slug': 'Southfirst',
	'website': 'http://www.southfirst.org',
	'phone': '(718) 599-4884',
	'address1': '60 North 6th Street',
	'address2': '',
	'city': 'Brooklyn',
	'neighborhood': 250,
	'coordinates': {
		'lat': '40.71946',
		'long': '-73.96198'
	}
}, {
	'name': 'Spanierman Modern',
	'slug': 'Spanierman-Modern',
	'website': 'http://www.spaniermanmodern.com',
	'phone': '212 832 1400',
	'address1': '625 West 55 Street ',
	'address2': '5th Floor',
	'city': 'New York',
	'neighborhood': 170,
	'coordinates': {
		'lat': '40.76975',
		'long': '-73.99351'
	}
}, {
	'name': 'Spencer Brownstone Gallery',
	'slug': 'Spencer-Brownstone-Gallery',
	'website': 'http://www.spencerbrownstonegallery.com',
	'phone': '(212) 334-3455',
	'address1': '3 Wooster Street',
	'address2': '',
	'city': 'New York',
	'neighborhood': 30,
	'coordinates': {
		'lat': '40.72152',
		'long': '-74.00348'
	}
}, {
	'name': 'Sperone Westwater',
	'slug': 'Sperone-Westwater',
	'website': 'http://www.speronewestwater.com',
	'phone': '(212) 999-7337',
	'address1': '257 Bowery',
	'address2': '',
	'city': 'New York',
	'neighborhood': 20,
	'coordinates': {
		'lat': '40.72328',
		'long': '-73.99254'
	}
}, {
	'name': 'Staley Wise Gallery',
	'slug': 'Staley-Wise-Gallery',
	'website': 'http://www.staleywise.com',
	'phone': '212 966 6223',
	'address1': '560 Broadway',
	'address2': '',
	'city': 'New York',
	'neighborhood': 30,
	'coordinates': {
		'lat': '40.72384',
		'long': '-73.99749'
	}
}, {
	'name': 'Stellan Holm Gallery',
	'slug': 'Stellan-Holm-Gallery',
	'website': 'http://www.stellanholm.com',
	'phone': '212 627 7444',
	'address1': '524 West 24th Street',
	'address2': '',
	'city': 'New York',
	'neighborhood': 120,
	'coordinates': {
		'lat': '40.74866',
		'long': '-74.00465'
	}
}, {
	'name': 'Steven Kasher Gallery',
	'slug': 'Steven-Kasher-Gallery',
	'website': 'http://www.stevenkasher.com',
	'phone': '(212) 966-3978',
	'address1': '515 West 26th Street',
	'address2': '',
	'city': 'New York',
	'neighborhood': 140,
	'coordinates': {
		'lat': '40.74985',
		'long': '-74.00316'
	}
}, {
	'name': 'Studio Museum in Harlem',
	'slug': 'Studio-Museum-in-Harlem',
	'website': 'http://www.studiomuseum.org',
	'phone': '(212) 864-4500',
	'address1': '144 West 125th Street',
	'address2': '',
	'city': 'New York',
	'neighborhood': 210,
	'coordinates': {
		'lat': '40.6694',
		'long': '-73.81454'
	}
}, {
	'name': 'Sundaram Tagore Gallery (Chelsea)',
	'slug': 'Sundaram-Tagore-Gallery-Chelsea-',
	'website': 'http://www.sundaramtagore.com',
	'phone': '(212) 677-4520',
	'address1': '547 West 27th Street',
	'address2': '1st Floor',
	'city': 'New York',
	'neighborhood': 150,
	'coordinates': {
		'lat': '40.75142',
		'long': '-74.00429'
	}
}, {
	'name': 'Susan Eley Fine Art',
	'slug': 'Susan-Eley-Fine-Art',
	'website': 'http://www.susaneleyfineart.com',
	'phone': '917 952 7641',
	'address1': '46 West 90th Street',
	'address2': '',
	'city': 'New York',
	'neighborhood': 200,
	'coordinates': {
		'lat': '40.78832',
		'long': '-73.96878'
	}
}, {
	'name': 'Susan Inglett Gallery',
	'slug': 'Susan-Inglett-Gallery',
	'website': 'http://www.inglettgallery.com',
	'phone': '(212) 647-9111',
	'address1': '522 West 24th Street',
	'address2': '',
	'city': 'New York',
	'neighborhood': 120,
	'coordinates': {
		'lat': '40.74866',
		'long': '-74.00465'
	}
}, {
	'name': 'Tanya Bonakdar Gallery',
	'slug': 'Tanya-Bonakdar-Gallery',
	'website': 'http://www.tanyabonakdargallery.com',
	'phone': '(212) 414-4144',
	'address1': '521 West 21st Street',
	'address2': '',
	'city': 'New York',
	'neighborhood': 90,
	'coordinates': {
		'lat': '40.74719',
		'long': '-74.00616'
	}
}, {
	'name': 'Team Gallery (Grand)',
	'slug': 'Team-Gallery-Grand-',
	'website': 'http://www.teamgal.com',
	'phone': '(212) 279-9219',
	'address1': '83 Grand Street',
	'address2': '',
	'city': 'New York',
	'neighborhood': 30,
	'coordinates': {
		'lat': '40.72163',
		'long': '-74.00244'
	}
}, {
	'name': 'Tenri Cultural Institute',
	'slug': 'Tenri-Cultural-Institute',
	'website': 'http://www.tenri.org',
	'phone': '212 645 2800',
	'address1': '43A West 13th Street',
	'address2': '',
	'city': 'New York',
	'neighborhood': 60,
	'coordinates': {
		'lat': '40.7364',
		'long': '-73.99609'
	}
}, {
	'name': 'Thierry Goldberg Gallery',
	'slug': 'Thierry-Goldberg-Gallery',
	'website': 'http://www.thierrygoldberg.com',
	'phone': '(212) 967-2260',
	'address1': '103 Norfolk Street',
	'address2': '',
	'city': 'New York',
	'neighborhood': 20,
	'coordinates': {
		'lat': '40.7189',
		'long': '-73.98739'
	}
}, {
	'name': 'Thomas Erben Gallery',
	'slug': 'Thomas-Erben-Gallery',
	'website': 'http://www.thomaserben.com',
	'phone': '(212) 645-8701',
	'address1': '526 West 26th Street ',
	'address2': '4th Floor',
	'city': 'New York',
	'neighborhood': 140,
	'coordinates': {
		'lat': '40.74982',
		'long': '-74.00358'
	}
}, {
	'name': 'Trygve Lie Gallery',
	'slug': 'Trygve-Lie-Gallery',
	'website': 'http://www.trygveliegallery.com',
	'phone': '212 319 0370',
	'address1': '317 East 52nd Street',
	'address2': '',
	'city': 'New York',
	'neighborhood': 170,
	'coordinates': {
		'lat': '40.75594',
		'long': '-73.96692'
	}
}, {
	'name': 'Tyler Rollins Fine Art',
	'slug': 'Tyler-Rollins-Fine-Art',
	'website': 'http://www.trfineart.com',
	'phone': '(212) 229-9100',
	'address1': '529 West 20th Street',
	'address2': '10th floor',
	'city': 'New York',
	'neighborhood': 80,
	'coordinates': {
		'lat': '40.74619',
		'long': '-74.0062'
	}
}, {
	'name': 'Umbrella Arts',
	'slug': 'Umbrella-Arts',
	'website': 'http://www.umbrellaarts.com',
	'phone': '(212) 505-7196',
	'address1': '317 East 9th Street',
	'address2': '',
	'city': 'New York',
	'neighborhood': 50,
	'coordinates': {
		'lat': '40.72899',
		'long': '-73.98619'
	}
}, {
	'name': 'Viridian Artists',
	'slug': 'Viridian-Artists',
	'website': 'http://www.viridianartists.com',
	'phone': '(212) 414-4040',
	'address1': '548 West 28th Street ',
	'address2': '# 632',
	'city': 'New York',
	'neighborhood': 150,
	'coordinates': {
		'lat': '40.75133',
		'long': '-74.0033'
	}
}, {
	'name': 'Wave Hill',
	'slug': 'Wave-Hill',
	'website': 'http://www.wavehill.org',
	'phone': '718 549 3200',
	'address1': 'West 249th Street & Independence Avenue',
	'address2': '',
	'city': 'Bronx',
	'neighborhood': 280,
	'coordinates': {
		'lat': '40.9001769',
		'long': '-73.9133867'
	}
}, {
	'name': 'Westbeth Gallery',
	'slug': 'Westbeth-Gallery',
	'website': 'http://www.westbeth.org/gallery-3.html',
	'phone': '212 989 4650',
	'address1': '57 Bethune Street',
	'address2': '',
	'city': 'New York',
	'neighborhood': 60,
	'coordinates': {
		'lat': '40.73687',
		'long': '-74.0085'
	}
}, {
	'name': 'White Box',
	'slug': 'White-Box',
	'website': 'http://www.whiteboxny.org',
	'phone': '(212) 714-2347',
	'address1': '329 Broome Street',
	'address2': '',
	'city': 'New York',
	'neighborhood': 20,
	'coordinates': {
		'lat': '40.71903',
		'long': '-73.99392'
	}
}, {
	'name': 'White Columns',
	'slug': 'White-Columns',
	'website': 'http://www.whitecolumns.org',
	'phone': '212 924 4212',
	'address1': '320 West 13th Street',
	'address2': 'Enter Horatio',
	'city': 'New York',
	'neighborhood': 60,
	'coordinates': {
		'lat': '40.73909',
		'long': '-74.00414'
	}
}, {
	'name': 'Whitney Museum',
	'slug': 'Whitney-Museum',
	'website': 'http://www.whitney.org',
	'phone': '(212) 570-3600',
	'address1': '99 Gansevoort Street',
	'address2': '',
	'city': 'New York',
	'neighborhood': 60,
	'coordinates': {
		'lat': '40.73946',
		'long': '-74.00808'
	}
}, {
	'name': 'Williamsburg Art and Historical Society',
	'slug': 'Williamsburg-Art-and-Historical-Society',
	'website': 'http://www.wahcenter.net',
	'phone': '718 486-7372',
	'address1': '135 Broadway ',
	'address2': '@ Bedford',
	'city': 'Brooklyn',
	'neighborhood': 250,
	'coordinates': {
		'lat': '40.71024',
		'long': '-73.96298'
	}
}, {
	'name': 'Winston Wachter',
	'slug': 'Winston-Wachter',
	'website': 'http://www.winstonwachter.com',
	'phone': '(212) 255-2718',
	'address1': '530 West 25th Street',
	'address2': '1st Floor',
	'city': 'New York',
	'neighborhood': 130,
	'coordinates': {
		'lat': '40.74926',
		'long': '-74.00414'
	}
}, {
	'name': 'Woodward Gallery',
	'slug': 'Woodward-Gallery',
	'website': 'http://www.WoodwardGallery.net',
	'phone': '(212) 966-3411',
	'address1': '133 Eldridge Street',
	'address2': '',
	'city': 'New York',
	'neighborhood': 20,
	'coordinates': {
		'lat': '40.71914',
		'long': '-73.99155'
	}
}, {
	'name': 'Yancey Richardson',
	'slug': 'Yancey-Richardson',
	'website': 'http://www.yanceyrichardson.com',
	'phone': '(646) 230-9610',
	'address1': '525 West 22nd Street',
	'address2': '',
	'city': 'New York',
	'neighborhood': 100,
	'coordinates': {
		'lat': '40.74722',
		'long': '-74.0049'
	}
}, {
	'name': 'Yeshiva University Museum',
	'slug': 'Yeshiva-University-Museum',
	'website': 'http://www.yumuseum.org',
	'phone': '212 294 8330',
	'address1': '15 West 16th Street',
	'address2': '',
	'city': '',
	'neighborhood': 160,
	'coordinates': {
		'lat': '40.73761',
		'long': '-73.99309'
	}
}, {
	'name': 'Zieher Smith',
	'slug': 'Zieher-Smith',
	'website': 'http://www.ZieherSmith.com',
	'phone': '212 229 1088',
	'address1': '516 West 20th Street',
	'address2': '',
	'city': 'New York',
	'neighborhood': 80,
	'coordinates': {
		'lat': '40.7459',
		'long': '-74.00598'
	}
}, {
	'name': 'Z\u00fcrcher Studio',
	'slug': 'Z\u00fcrcher-Studio',
	'website': 'http://www.galeriezurcher.com',
	'phone': '212 777 0790',
	'address1': '33 Bleecker Street',
	'address2': '',
	'city': 'New York',
	'neighborhood': 50,
	'coordinates': {
		'lat': '40.72583',
		'long': '-73.99371'
	}
}, {
	'name': '511 Gallery',
	'slug': '511-Gallery',
	'website': 'www.511gallery.com',
	'phone': '212 255 2885',
	'address1': '252 7th Avenue',
	'address2': '',
	'city': 'New York',
	'neighborhood': 130,
	'coordinates': {
		'lat': '40.74531',
		'long': '-73.99548'
	}
}, {
	'name': 'Adam Baumgold Gallery',
	'slug': 'Adam-Baumgold-Gallery',
	'website': 'www.adambaumgoldgallery.com',
	'phone': '(212) 861-7338 ',
	'address1': '60 East 66th Street',
	'address2': '',
	'city': 'New York',
	'neighborhood': 190,
	'coordinates': {
		'lat': '40.76738',
		'long': '-73.96743'
	}
}, {
	'name': 'Agora Gallery',
	'slug': 'Agora-Gallery',
	'website': 'www.agora-gallery.com',
	'phone': '(212) 255-4151',
	'address1': '530 West 25th Street',
	'address2': '1st floor',
	'city': 'New York',
	'neighborhood': 130,
	'coordinates': {
		'lat': '40.74926',
		'long': '-74.00414'
	}
}, {
	'name': 'Alan Klotz Gallery',
	'slug': 'Alan-Klotz-Gallery',
	'website': 'www.klotzgallery.com',
	'phone': '212 741 4764',
	'address1': '740 West End Avenue ',
	'address2': 'Suite 52',
	'city': 'New York',
	'neighborhood': 200,
	'coordinates': {
		'lat': '40.79533',
		'long': '-73.97268'
	}
}, {
	'name': 'Anita Shapolsky',
	'slug': 'Anita-Shapolsky',
	'website': 'www.anitashapolskygallery.com',
	'phone': '212 452 1094',
	'address1': '152 East 65th Street',
	'address2': '',
	'city': 'New York',
	'neighborhood': 190,
	'coordinates': {
		'lat': '40.76537',
		'long': '-73.96458'
	}
}, {
	'name': 'Atlantic Gallery',
	'slug': 'Atlantic-Gallery',
	'website': 'www.atlanticgallery.org',
	'phone': '(212) 219-3183',
	'address1': '548 West 28th Street ',
	'address2': '# 540',
	'city': 'New York',
	'neighborhood': 150,
	'coordinates': {
		'lat': '40.75133',
		'long': '-74.0033'
	}
}, {
	'name': 'Bruce Silverstein Gallery (20th Street)',
	'slug': 'Bruce-Silverstein-Gallery-20th-Street-',
	'website': 'http://www.brucesilverstein.com',
	'phone': '(212) 627-3930',
	'address1': '529 West 20th Street ',
	'address2': '3rd floor',
	'city': 'New York',
	'neighborhood': 80,
	'coordinates': {
		'lat': '40.74619',
		'long': '-74.0062'
	}
}, {
	'name': 'Dactyl Foundation',
	'slug': 'Dactyl-Foundation',
	'website': 'www.dactyl.org',
	'phone': '212 219 2344',
	'address1': '64 Grand Street',
	'address2': '',
	'city': 'New York',
	'neighborhood': 30,
	'coordinates': {
		'lat': '40.72222',
		'long': '-74.00323'
	}
}, {
	'name': 'Daniel Cooney Fine Art',
	'slug': 'Daniel-Cooney-Fine-Art',
	'website': 'www.danielcooneyfineart.com',
	'phone': '(212) 255-8158',
	'address1': '508-526 West 26th Street ',
	'address2': '#9C',
	'city': 'New York',
	'neighborhood': 140,
	'coordinates': {
		'lat': '40.74999',
		'long': '-74.00398'
	}
}, {
	'name': 'Dorfman Projects',
	'slug': 'Dorfman-Projects',
	'website': 'www.dorfmanprojects.com',
	'phone': '212 352 2272',
	'address1': '529 West 20th Street',
	'address2': '7th floor',
	'city': 'New York',
	'neighborhood': 80,
	'coordinates': {
		'lat': '40.74619',
		'long': '-74.0062'
	}
}, {
	'name': 'French Institute Alliance Francaise (FIAF)',
	'slug': 'French-Institute-Alliance-Francaise-FIAF-',
	'website': 'www.fiaf.org',
	'phone': '212 644 0135',
	'address1': '22 East 60th Street',
	'address2': '',
	'city': 'New York',
	'neighborhood': 190,
	'coordinates': {
		'lat': '40.76409',
		'long': '-73.9709'
	}
}, {
	'name': 'Gagosian (21st St)',
	'slug': 'Gagosian-21st-St-',
	'website': 'www.gagosian.com',
	'phone': '(212) 744-2313',
	'address1': '522 West 21st Street',
	'address2': '',
	'city': 'New York',
	'neighborhood': 90,
	'coordinates': {
		'lat': '40.74684',
		'long': '-74.00674'
	}
}, {
	'name': 'Gagosian (24th St)',
	'slug': 'Gagosian-24th-St-',
	'website': 'www.gagosian.com',
	'phone': '(212) 744-2313',
	'address1': '555 West 24th Street',
	'address2': '',
	'city': 'New York',
	'neighborhood': 120,
	'coordinates': {
		'lat': '40.74866',
		'long': '-74.00418'
	}
}, {
	'name': 'Gallery Korea',
	'slug': 'Gallery-Korea',
	'website': 'www.koreanculture.org',
	'phone': '212 759 9550',
	'address1': '460 Park Avenue',
	'address2': '',
	'city': 'New York',
	'neighborhood': 180,
	'coordinates': {
		'lat': '40.762',
		'long': '-73.97057'
	}
}, {
	'name': 'Hollis Taggart Galleries',
	'slug': 'Hollis-Taggart-Galleries',
	'website': 'www.hollistaggart.com',
	'phone': '(212) 628-4000',
	'address1': '521 West 26th Street ',
	'address2': '7th Floor',
	'city': 'New York',
	'neighborhood': 140,
	'coordinates': {
		'lat': '40.74992',
		'long': '-74.00333'
	}
}, {
	'name': 'The Horticultural Society of New York Gallery',
	'slug': 'The-Horticultural-Society-of-New-York-Gallery',
	'website': 'www.hsny.org/programs_exhibitions.html',
	'phone': '(212) 757-0915',
	'address1': '148 West 37th Street',
	'address2': '',
	'city': 'New York',
	'neighborhood': 170,
	'coordinates': {
		'lat': '40.75248',
		'long': '-73.9889'
	}
}, {
	'name': 'ISCP International Studio & Curatorial Program',
	'slug': 'ISCP-International-Studio-Curatorial-Program',
	'website': 'www.iscp-nyc.org',
	'phone': '718 387 2900',
	'address1': '1040 Metropolitan Avenue',
	'address2': '',
	'city': 'Brooklyn',
	'neighborhood': 240,
	'coordinates': {
		'lat': '40.71435',
		'long': '-73.93498'
	}
}, {
	'name': 'Jason McCoy',
	'slug': 'Jason-McCoy',
	'website': 'www.jasonmccoyinc.com',
	'phone': '(212) 319-1996',
	'address1': '41 East 57th Street',
	'address2': '',
	'city': 'New York',
	'neighborhood': 180,
	'coordinates': {
		'lat': '40.76225',
		'long': '-73.97227'
	}
}, {
	'name': 'Kips Gallery',
	'slug': 'Kips-Gallery',
	'website': 'www.kipsgallery.com',
	'phone': '(212) 242-4215',
	'address1': '511 West 25th Street ',
	'address2': '#206',
	'city': 'New York',
	'neighborhood': 130,
	'coordinates': {
		'lat': '40.74952',
		'long': '-74.00391'
	}
}, {
	'name': 'Leroy Neiman Gallery at Columbia University',
	'slug': 'Leroy-Neiman-Gallery-at-Columbia-University',
	'website': 'http://arts.columbia.edu/visual-arts/leroy-neiman-gallery',
	'phone': '212 854 7641',
	'address1': '2960 Broadway',
	'address2': '',
	'city': 'New York',
	'neighborhood': 210,
	'coordinates': {
		'lat': '40.80843',
		'long': '-73.96347'
	}
}, {
	'name': 'Marianne Boesky (Chelsea)',
	'slug': 'Marianne-Boesky-Chelsea-',
	'website': 'www.marianneboeskygallery.com',
	'phone': '(212) 680-9889',
	'address1': '509 West 24th Street',
	'address2': '',
	'city': 'New York',
	'neighborhood': 120,
	'coordinates': {
		'lat': '40.74866',
		'long': '-74.00418'
	}
}, {
	'name': 'Marlborough (57th Street)',
	'slug': 'Marlborough-57th-Street-',
	'website': 'www.marlboroughgallery.com',
	'phone': '(212) 541-4900',
	'address1': '40 West 57th Street',
	'address2': '',
	'city': 'New York',
	'neighborhood': 180,
	'coordinates': {
		'lat': '40.76376',
		'long': '-73.9761'
	}
}, {
	'name': 'Mary Boone Gallery (Chelsea)',
	'slug': 'Mary-Boone-Gallery-Chelsea-',
	'website': 'www.maryboonegallery.com',
	'phone': '(212) 752-2929',
	'address1': '541 West 24th Street',
	'address2': '',
	'city': 'New York',
	'neighborhood': 120,
	'coordinates': {
		'lat': '40.7493097',
		'long': '-74.007755'
	}
}, {
	'name': 'Matthew Marks (523 West 24)',
	'slug': 'Matthew-Marks-523-West-24-',
	'website': 'www.matthewmarks.com',
	'phone': '(212) 243-0200',
	'address1': '523 West 24th Street',
	'address2': '',
	'city': 'New York',
	'neighborhood': 120,
	'coordinates': {
		'lat': '40.74866',
		'long': '-74.00418'
	}
}, {
	'name': 'Brooke Alexander Editions',
	'slug': 'Brooke-Alexander-Editions',
	'website': 'www.baeditions.com',
	'phone': '212 925 3615',
	'address1': '59 Wooster Street',
	'address2': '',
	'city': 'New York',
	'neighborhood': 30,
	'coordinates': {
		'lat': '40.72312',
		'long': '-74.00212'
	}
}, {
	'name': 'Cooper-Hewitt, National Design Museum',
	'slug': 'Cooper-Hewitt-National-Design-Museum',
	'website': 'www.cooperhewitt.org',
	'phone': '212 849 2950',
	'address1': '2 East 91st Street',
	'address2': '',
	'city': 'New York',
	'neighborhood': 190,
	'coordinates': {
		'lat': '40.78462',
		'long': '-73.95811'
	}
}, {
	'name': 'Dieu Donne Gallery',
	'slug': 'Dieu-Donne-Gallery',
	'website': 'www.dieudonne.org',
	'phone': '(212) 226-0573',
	'address1': '315 West 36th Street',
	'address2': '',
	'city': 'New York',
	'neighborhood': 170,
	'coordinates': {
		'lat': '40.75406',
		'long': '-73.99333'
	}
}, {
	'name': 'Edwynn Houk Gallery',
	'slug': 'Edwynn-Houk-Gallery',
	'website': 'www.houkgallery.com',
	'phone': '212 750 7070',
	'address1': '745 Fifth Avenue',
	'address2': '',
	'city': 'New York',
	'neighborhood': 180,
	'coordinates': {
		'lat': '40.76436',
		'long': '-73.97649'
	}
}, {
	'name': 'Elga Wimmer PCC',
	'slug': 'Elga-Wimmer-PCC',
	'website': 'www.elgawimmer.com',
	'phone': '(212) 206-0006',
	'address1': '526 West 26th Street ',
	'address2': '#310',
	'city': 'New York',
	'neighborhood': 140,
	'coordinates': {
		'lat': '40.74982',
		'long': '-74.00358'
	}
}, {
	'name': 'Maxwell Davidson Gallery',
	'slug': 'Maxwell-Davidson-Gallery',
	'website': 'www.davidsongallery.com',
	'phone': '(212) 759-7555',
	'address1': '521 West 26th Street',
	'address2': '',
	'city': 'New York',
	'neighborhood': 140,
	'coordinates': {
		'lat': '40.74992',
		'long': '-74.00333'
	}
}, {
	'name': 'Open Source',
	'slug': 'Open-Source',
	'website': 'open-source-gallery.org',
	'phone': '646 279 3969',
	'address1': '306 17th Street',
	'address2': '',
	'city': 'Brooklyn',
	'neighborhood': 220,
	'coordinates': {
		'lat': '40.66266',
		'long': '-73.99003'
	}
}, {
	'name': 'Pace Gallery (545 W 22)',
	'slug': 'Pace-Gallery-545-W-22-',
	'website': 'www.thepacegallery.com',
	'phone': '(212) 989-4263',
	'address1': '545 West 22nd Street',
	'address2': '',
	'city': 'New York',
	'neighborhood': 100,
	'coordinates': {
		'lat': '40.74821',
		'long': '-74.00686'
	}
}, {
	'name': 'Queens Museum',
	'slug': 'Queens-Museum',
	'website': 'www.queensmuseum.org',
	'phone': '(718) 592-9700',
	'address1': 'New York City Building/ Flushing Meadows Corona Park',
	'address2': '',
	'city': 'Queens',
	'neighborhood': 274,
	'coordinates': {
		'lat': '40.745666',
		'long': '-73.8486896'
	}
}, {
	'name': 'Ramis Barquet',
	'slug': 'Ramis-Barquet',
	'website': 'www.ramisbarquet.com',
	'phone': '212 675 3421',
	'address1': '601 West 26th Street',
	'address2': 'Suite 300',
	'city': 'New York',
	'neighborhood': 140,
	'coordinates': {
		'lat': '40.75087',
		'long': '-74.0056'
	}
}, {
	'name': 'Richard Feigen & Co.',
	'slug': 'Richard-Feigen-Co-',
	'website': 'www.rlfeigen.com',
	'phone': '212 628 0700',
	'address1': '34 East 69th Street',
	'address2': '',
	'city': 'New York',
	'neighborhood': 190,
	'coordinates': {
		'lat': '40.7696',
		'long': '-73.96649'
	}
}, {
	'name': 'Rogue Space / Chelsea',
	'slug': 'Rogue-Space-Chelsea',
	'website': 'www.chelseagalleryspace.com',
	'phone': '',
	'address1': '526 West 26th Street',
	'address2': '9th Floor',
	'city': 'New York',
	'neighborhood': 140,
	'coordinates': {
		'lat': '40.74982',
		'long': '-74.00358'
	}
}, {
	'name': 'Salamatina Gallery',
	'slug': 'Salamatina-Gallery',
	'website': 'www.salamatina.com',
	'phone': '516 439 4471',
	'address1': '2032 Northern Boulevard ',
	'address2': '',
	'city': 'Manhasset',
	'neighborhood': 300,
	'coordinates': {
		'lat': '40.7957',
		'long': '-73.67504'
	}
}, {
	'name': 'Salon 94 (Uptown)',
	'slug': 'Salon-94-Uptown-',
	'website': 'www.salon94.com',
	'phone': '(646) 672-9212',
	'address1': '12 East 94th Street',
	'address2': '',
	'city': 'New York',
	'neighborhood': 190,
	'coordinates': {
		'lat': '40.78626',
		'long': '-73.95591'
	}
}, {
	'name': 'Simon Preston Gallery',
	'slug': 'Simon-Preston-Gallery',
	'website': 'www.simonprestongallery.com',
	'phone': '(212) 431-1105',
	'address1': '301 Broome Street',
	'address2': '',
	'city': 'New York',
	'neighborhood': 20,
	'coordinates': {
		'lat': '40.71854',
		'long': '-73.99232'
	}
}, {
	'name': 'Smack Mellon',
	'slug': 'Smack-Mellon',
	'website': 'www.smackmellon.org',
	'phone': '(718) 834-8761',
	'address1': '92 Plymouth Street',
	'address2': '',
	'city': 'Brooklyn',
	'neighborhood': 230,
	'coordinates': {
		'lat': '40.70377',
		'long': '-73.98965'
	}
}, {
	'name': 'Talwar Gallery',
	'slug': 'Talwar-Gallery',
	'website': 'www.talwargallery.com',
	'phone': '(212) 673-3096',
	'address1': '108 East 16th Street',
	'address2': '',
	'city': 'New York',
	'neighborhood': 160,
	'coordinates': {
		'lat': '40.73545',
		'long': '-73.98883'
	}
}, {
	'name': 'The Hebrew Home/Elma and Milton A. Gilbert Pavilion Gallery',
	'slug': 'The-Hebrew-Home-Elma-and-Milton-A-Gilbert-Pavilion-Gallery',
	'website': 'hebrewhome.org',
	'phone': '718 5811596',
	'address1': '5901 Palisade Avenue',
	'address2': '',
	'city': 'Bronx',
	'neighborhood': 280,
	'coordinates': {
		'lat': '40.90997',
		'long': '-73.91005'
	}
}, {
	'name': 'Tilton Gallery',
	'slug': 'Tilton-Gallery',
	'website': 'www.jacktiltongallery.com',
	'phone': '(212) 737-2221',
	'address1': '8 East 76th Street',
	'address2': '',
	'city': 'New York',
	'neighborhood': 190,
	'coordinates': {
		'lat': '40.77454',
		'long': '-73.96456'
	}
}, {
	'name': 'Tina Kim Gallery',
	'slug': 'Tina-Kim-Gallery',
	'website': 'www.tinakimgallery.com',
	'phone': '(212) 716-1100',
	'address1': '525 West 21st Street',
	'address2': '',
	'city': 'New York',
	'neighborhood': 90,
	'coordinates': {
		'lat': '40.74727',
		'long': '-74.00657'
	}
}, {
	'name': 'Westwood Gallery (old)',
	'slug': 'Westwood-Gallery-old-',
	'website': 'www.westwoodgallery.com',
	'phone': '212 925 5700',
	'address1': '568 Broadway',
	'address2': '',
	'city': 'New York',
	'neighborhood': 30,
	'coordinates': {
		'lat': '40.7244',
		'long': '-73.99747'
	}
}, {
	'name': 'Wilkinson Gallery',
	'slug': 'Wilkinson-Gallery',
	'website': 'www.nyaa.edu',
	'phone': '(212) 842-5966',
	'address1': '111 Franklin Street',
	'address2': '',
	'city': 'New York',
	'neighborhood': 10,
	'coordinates': {
		'lat': '40.71838',
		'long': '-74.0061'
	}
}, {
	'name': 'Aeon Logic Art Gallery',
	'slug': 'Aeon-Logic-Art-Gallery',
	'website': 'www.aeonlogicartgallery',
	'phone': '347 787 4626',
	'address1': '4 Malcolm X Blvd.',
	'address2': '',
	'city': 'Brooklyn',
	'neighborhood': 240,
	'coordinates': {
		'lat': '40.69418',
		'long': '-73.93162'
	}
}, {
	'name': 'International Print Center (IPCNY)',
	'slug': 'International-Print-Center-IPCNY-',
	'website': 'www.ipcny.org',
	'phone': '212 989 5090',
	'address1': '526 West 26th Street',
	'address2': '5A',
	'city': 'New York',
	'neighborhood': 140,
	'coordinates': {
		'lat': '40.74982',
		'long': '-74.00358'
	}
}, {
	'name': 'Italian Cultural Institute of New York',
	'slug': 'Italian-Cultural-Institute-of-New-York',
	'website': 'www.iicnewyork.esteri.it/IIC_Newyork',
	'phone': '212 879 4242',
	'address1': '686 Park Avenue',
	'address2': '',
	'city': 'New York',
	'neighborhood': 190,
	'coordinates': {
		'lat': '40.76913',
		'long': '-73.9657'
	}
}, {
	'name': 'Jim Kempner Fine Art',
	'slug': 'Jim-Kempner-Fine-Art',
	'website': 'www.jimkempner.com',
	'phone': '(212) 206-6872',
	'address1': '501 West 23rd Street',
	'address2': '',
	'city': 'New York',
	'neighborhood': 110,
	'coordinates': {
		'lat': '40.74833',
		'long': '-74.00499'
	}
}, {
	'name': 'Pace Prints (Upper East Side)',
	'slug': 'Pace-Prints-Upper-East-Side-',
	'website': 'www.paceprints.com',
	'phone': '212 421 3237',
	'address1': '32 East 57th Street',
	'address2': '',
	'city': 'New York',
	'neighborhood': 180,
	'coordinates': {
		'lat': '40.76184',
		'long': '-73.97208'
	}
}, {
	'name': 'Tanja Grunert Gallery',
	'slug': 'Tanja-Grunert-Gallery',
	'website': 'www.gassergrunert.net',
	'phone': '(646) 944-6197',
	'address1': '33A Orchard Street',
	'address2': '',
	'city': 'New York',
	'neighborhood': 20,
	'coordinates': {
		'lat': '40.71566',
		'long': '-73.99173'
	}
}, {
	'name': 'Tabla Rasa Gallery',
	'slug': 'Tabla-Rasa-Gallery',
	'website': 'www.tablarasagallery.com',
	'phone': '(718) 833-9100',
	'address1': '224 48th Street',
	'address2': '',
	'city': 'Brooklyn',
	'neighborhood': 260,
	'coordinates': {
		'lat': '40.64971',
		'long': '-74.01511'
	}
}, {
	'name': 'The Invisible Dog',
	'slug': 'The-Invisible-Dog',
	'website': 'www.theinvisibledog.org',
	'phone': '718 260 8688',
	'address1': '51 Bergen Street',
	'address2': '',
	'city': 'Brooklyn',
	'neighborhood': 220,
	'coordinates': {
		'lat': '40.68726',
		'long': '-73.99114'
	}
}, {
	'name': 'Henrique Faria Fine Art',
	'slug': 'Henrique-Faria-Fine-Art',
	'website': 'henriquefaria.com',
	'phone': '(212) 517-4609',
	'address1': '35 East 67th Street',
	'address2': '',
	'city': 'New York',
	'neighborhood': 190,
	'coordinates': {
		'lat': '40.76855',
		'long': '-73.96705'
	}
}, {
	'name': 'Lehmann Maupin (Chelsea)',
	'slug': 'Lehmann-Maupin-Chelsea-',
	'website': 'www.lehmannmaupin.com',
	'phone': '(212) 255-2923',
	'address1': '536 West 22nd Street',
	'address2': '',
	'city': 'New York',
	'neighborhood': 100,
	'coordinates': {
		'lat': '40.74735',
		'long': '-74.00567'
	}
}, {
	'name': 'Triple Canopy',
	'slug': 'Triple-Canopy',
	'website': 'www.canopycanopycanopy.com',
	'phone': '(347) 529-5182',
	'address1': '264 Canal Street',
	'address2': '',
	'city': 'New York',
	'neighborhood': 10,
	'coordinates': {
		'lat': '40.718572',
		'long': ' -74.001213'
	}
}, {
	'name': 'Smithsonian Archives of American Art',
	'slug': 'Smithsonian-Archives-of-American-Art',
	'website': '',
	'phone': '',
	'address1': '1285 Avenue of the Americas',
	'address2': '',
	'city': 'New York',
	'neighborhood': 170,
	'coordinates': {
		'lat': '40.76077',
		'long': '-73.9799'
	}
}, {
	'name': 'Y Gallery',
	'slug': 'Y-Gallery',
	'website': 'www.ygallerynewyork.com',
	'phone': '(212) 228-3897',
	'address1': '319 Grand Street',
	'address2': '',
	'city': 'New York',
	'neighborhood': 20,
	'coordinates': {
		'lat': '40.71707',
		'long': '-73.99094'
	}
}, {
	'name': 'Salmagundi Club',
	'slug': 'Salmagundi-Club',
	'website': 'www.salmagundi.org',
	'phone': '(212) 255-7740',
	'address1': '47 Fifth Avenue',
	'address2': '',
	'city': 'New York',
	'neighborhood': 60,
	'coordinates': {
		'lat': '40.73429',
		'long': '-73.99474'
	}
}, {
	'name': 'Cooper Union (41 Cooper Gallery)',
	'slug': 'Cooper-Union-41-Cooper-Gallery-',
	'website': 'www.cooper.edu/art/exhibitions.html',
	'phone': '(212) 353-4200',
	'address1': '41 Cooper Square',
	'address2': '',
	'city': 'New York',
	'neighborhood': 50,
	'coordinates': {
		'lat': '40.72865',
		'long': '-73.99045'
	}
}, {
	'name': 'Art Currents Institute',
	'slug': 'Art-Currents-Institute',
	'website': 'http://www.artcurrents.org/',
	'phone': '',
	'address1': '547 West 27th Street ',
	'address2': '# 210',
	'city': 'New York',
	'neighborhood': 150,
	'coordinates': {
		'lat': '40.75142',
		'long': '-74.00429'
	}
},